timestamp,height,x_speed,y_speed,z_speed,pitch,roll,yaw,temperature,distance,barometer,flight_time,battery,mp_distance_x,mp_distance_y,mp_distance_z,frame.number,frame.len,frame.protocols,wlan.duration,wlan.ra,wlan.ta,wlan.da,wlan.sa,wlan.bssid,wlan.frag,wlan.seq,llc.type,ip.hdr_len,ip.len,ip.id,ip.flags,ip.ttl,ip.proto,ip.src,ip.dst,tcp.srcport,tcp.dstport,tcp.seq_raw,tcp.ack_raw,tcp.hdr_len,tcp.flags,tcp.window_size,tcp.options,udp.srcport,udp.dstport,udp.length,data.data,data.len,wlan.fc.type,wlan.fc.subtype,time_since_last_packet,class
16385.31522,80,0,0,0,0,0,0,61,84,19169,7,93,6,6,87,629,26,0,162,1,2,1,2,0,0,0,0,0,0,0,0,0,0,0,0,0,0,0,0,0,0,0,0,0,0,0,0,0,2,12.0,0.102667,replay
16385.83494,80,0,0,0,-1,0,0,61,85,19174,7,93,5,7,87,629,26,0,162,1,2,1,2,0,0,0,0,0,0,0,0,0,0,0,0,0,0,0,0,0,0,0,0,0,0,0,0,0,2,12.0,0.102667,replay
16386.36499,80,0,0,0,-1,0,0,61,84,19172,8,93,4,10,87,661,227,3,44,0,1,0,1,0,0,79,2048,20,193,80,0,255,17,1,2,0,0,0,0,0,0,0,0,8889,8890,173,36,165,2,8.0,0.067338,replay
16386.88261,80,0,0,0,-1,0,0,61,83,19170,8,93,5,9,87,665,26,0,162,1,2,1,2,0,0,0,0,0,0,0,0,0,0,0,0,0,0,0,0,0,0,0,0,0,0,0,0,0,2,12.0,0.204006,replay
16387.41194,80,0,0,0,-1,0,0,61,83,19168,9,93,6,10,86,669,26,0,162,1,2,1,2,0,0,0,0,0,0,0,0,0,0,0,0,0,0,0,0,0,0,0,0,0,0,0,0,0,2,12.0,0.103074,replay
16387.92853,80,0,0,0,0,0,0,61,83,19171,9,93,5,9,86,677,26,0,162,1,2,1,2,0,0,0,0,0,0,0,0,0,0,0,0,0,0,0,0,0,0,0,0,0,0,0,0,0,2,12.0,0.001825,replay
16388.45845,80,0,0,0,0,0,0,60,83,19166,10,93,5,10,86,677,26,0,162,1,2,1,2,0,0,0,0,0,0,0,0,0,0,0,0,0,0,0,0,0,0,0,0,0,0,0,0,0,2,12.0,0.001825,replay
16388.97507,80,0,-1,0,-1,-1,0,60,82,19165,10,93,5,10,86,705,26,0,162,1,2,1,2,0,0,0,0,0,0,0,0,0,0,0,0,0,0,0,0,0,0,0,0,0,0,0,0,0,2,12.0,0.072494,replay
16389.50676,80,0,0,0,0,0,0,62,81,19161,11,93,4,8,84,705,26,0,162,1,2,1,2,0,0,0,0,0,0,0,0,0,0,0,0,0,0,0,0,0,0,0,0,0,0,0,0,0,2,12.0,0.072494,replay
16390.02172,80,0,0,0,0,0,0,62,80,19158,11,93,4,5,84,750,86,2,44,1,0,1,0,0,0,126,2048,20,52,3965,64,128,6,2,4,62694,53,2962362611,0,32,2,64240,1,0,0,0,0,0,2,8.0,0.035428,replay
16390.55248,80,0,0,0,0,0,0,62,81,19162,12,93,5,6,84,759,26,0,162,1,2,1,2,0,0,0,0,0,0,0,0,0,0,0,0,0,0,0,0,0,0,0,0,0,0,0,0,0,2,12.0,0.576056,replay
16391.0685,80,0,0,0,-1,0,0,62,80,19162,12,93,9,12,83,771,26,0,162,1,2,1,2,0,0,0,0,0,0,0,0,0,0,0,0,0,0,0,0,0,0,0,0,0,0,0,0,0,2,12.0,0.303532,replay
16391.59938,80,0,0,0,0,0,0,62,81,19169,13,93,11,13,83,779,26,0,162,1,2,1,2,0,0,0,0,0,0,0,0,0,0,0,0,0,0,0,0,0,0,0,0,0,0,0,0,0,2,12.0,0.001323,replay
16392.10017,80,0,0,0,-1,0,0,62,81,19166,13,93,13,14,83,779,26,0,162,1,2,1,2,0,0,0,0,0,0,0,0,0,0,0,0,0,0,0,0,0,0,0,0,0,0,0,0,0,2,12.0,0.001323,replay
16392.61493,80,0,0,0,-1,0,0,62,81,19163,14,93,16,19,82,842,26,0,162,1,2,1,2,0,0,0,0,0,0,0,0,0,0,0,0,0,0,0,0,0,0,0,0,0,0,0,0,0,2,12.0,0.001362,replay
16393.13065,80,0,0,0,0,0,0,62,82,19163,14,93,17,18,83,842,26,0,162,1,2,1,2,0,0,0,0,0,0,0,0,0,0,0,0,0,0,0,0,0,0,0,0,0,0,0,0,0,2,12.0,0.001362,replay
16393.66168,80,0,0,0,0,0,0,61,80,19158,15,93,15,19,82,938,231,3,320,0,1,0,1,0,0,166,2048,20,197,166,0,255,17,1,2,0,0,0,0,0,0,0,0,8889,8890,177,29,169,2,8.0,0.002399,replay
16394.17939,80,1,0,0,-8,0,0,61,81,19160,15,93,14,19,82,938,231,3,320,0,1,0,1,0,0,166,2048,20,197,166,0,255,17,1,2,0,0,0,0,0,0,0,0,8889,8890,177,29,169,2,8.0,0.002399,replay
16394.70929,80,3,0,0,1,0,0,62,80,19165,16,93,1,15,84,966,26,0,162,1,2,1,2,0,0,0,0,0,0,0,0,0,0,0,0,0,0,0,0,0,0,0,0,0,0,0,0,0,2,12.0,0.101342,replay
16395.2409,80,2,0,0,-1,0,0,62,82,19159,16,93,-13,18,85,973,26,0,162,1,2,1,2,0,0,0,0,0,0,0,0,0,0,0,0,0,0,0,0,0,0,0,0,0,0,0,0,0,2,12.0,0.102337,replay
16395.77119,80,2,0,0,-1,0,0,62,83,19152,17,93,-25,27,84,973,26,0,162,1,2,1,2,0,0,0,0,0,0,0,0,0,0,0,0,0,0,0,0,0,0,0,0,0,0,0,0,0,2,12.0,0.102337,replay
16396.28705,80,2,0,0,-1,-1,0,63,83,19156,18,93,-33,25,89,1002,26,0,162,1,2,1,2,0,0,0,0,0,0,0,0,0,0,0,0,0,0,0,0,0,0,0,0,0,0,0,0,0,2,12.0,0.001363,replay
16396.80418,80,2,0,0,-1,-1,0,63,84,19164,18,93,47,16,83,1002,26,0,162,1,2,1,2,0,0,0,0,0,0,0,0,0,0,0,0,0,0,0,0,0,0,0,0,0,0,0,0,0,2,12.0,0.001363,replay
16397.33384,80,1,-1,0,-1,-1,0,62,84,19167,19,93,38,12,85,1121,26,0,162,1,2,1,2,0,0,0,0,0,0,0,0,0,0,0,0,0,0,0,0,0,0,0,0,0,0,0,0,0,2,12.0,0.001963,replay
16397.86491,80,0,0,0,0,2,0,62,83,19164,19,93,30,13,83,1125,231,3,44,0,1,0,1,0,0,208,2048,20,197,208,0,255,17,1,2,0,0,0,0,0,0,0,0,8889,8890,177,27,169,2,8.0,0.077837,replay
16398.38167,80,0,0,0,-2,-1,0,62,83,19159,20,93,34,14,81,1135,26,0,162,1,2,1,2,0,0,0,0,0,0,0,0,0,0,0,0,0,0,0,0,0,0,0,0,0,0,0,0,0,2,12.0,0.002753,replay
16398.91139,80,2,-1,0,-1,0,0,62,82,19159,20,93,30,14,82,1150,234,3,320,0,1,0,1,0,0,224,2048,20,200,224,0,255,17,1,2,0,0,0,0,0,0,0,0,8889,8890,180,23,172,2,8.0,0.12727,replay
16399.42875,80,1,-1,0,0,0,0,63,81,19159,21,93,14,11,82,1150,234,3,320,0,1,0,1,0,0,224,2048,20,200,224,0,255,17,1,2,0,0,0,0,0,0,0,0,8889,8890,180,23,172,2,8.0,0.12727,replay
16399.9595,80,1,0,0,-1,-1,0,63,81,19162,21,93,8,6,83,1171,26,0,162,1,2,1,2,0,0,0,0,0,0,0,0,0,0,0,0,0,0,0,0,0,0,0,0,0,0,0,0,0,2,12.0,0.001981,replay
16400.4905,80,0,0,0,-1,0,0,62,81,19165,22,93,5,6,83,1171,26,0,162,1,2,1,2,0,0,0,0,0,0,0,0,0,0,0,0,0,0,0,0,0,0,0,0,0,0,0,0,0,2,12.0,0.001981,replay
16401.00742,80,0,0,0,0,0,0,62,81,19161,22,93,3,6,83,1206,232,3,44,0,1,0,1,0,0,251,2048,20,198,251,0,255,17,1,2,0,0,0,0,0,0,0,0,8889,8890,178,46,170,2,8.0,0.011207,replay
16401.53742,80,0,0,0,-3,-1,0,63,82,19157,23,93,3,6,84,1206,232,3,44,0,1,0,1,0,0,251,2048,20,198,251,0,255,17,1,2,0,0,0,0,0,0,0,0,8889,8890,178,46,170,2,8.0,0.011207,replay
16402.05258,80,0,0,0,0,0,0,63,81,19154,23,93,3,8,83,1211,26,0,162,1,2,1,2,0,0,0,0,0,0,0,0,0,0,0,0,0,0,0,0,0,0,0,0,0,0,0,0,0,2,12.0,0.003169,replay
16402.56889,80,0,0,0,0,0,0,63,82,19163,24,93,5,9,84,1226,26,0,162,1,2,1,2,0,0,0,0,0,0,0,0,0,0,0,0,0,0,0,0,0,0,0,0,0,0,0,0,0,2,12.0,0.001367,replay
16403.09987,80,0,0,0,-8,0,0,63,82,19157,24,93,7,11,83,1226,26,0,162,1,2,1,2,0,0,0,0,0,0,0,0,0,0,0,0,0,0,0,0,0,0,0,0,0,0,0,0,0,2,12.0,0.001367,replay
16403.61664,80,3,0,0,0,0,0,63,81,19157,25,93,-2,15,83,1267,26,0,162,1,2,1,2,0,0,0,0,0,0,0,0,0,0,0,0,0,0,0,0,0,0,0,0,0,0,0,0,0,2,12.0,0.002201,replay
16404.14636,80,2,0,0,-1,0,0,63,81,19161,25,93,-14,22,81,1267,26,0,162,1,2,1,2,0,0,0,0,0,0,0,0,0,0,0,0,0,0,0,0,0,0,0,0,0,0,0,0,0,2,12.0,0.002201,replay
16404.70927,80,2,0,0,-1,-1,0,62,81,19153,26,93,-28,26,78,1306,26,0,162,1,2,1,2,0,0,0,0,0,0,0,0,0,0,0,0,0,0,0,0,0,0,0,0,0,0,0,0,0,2,12.0,2.5e-05,replay
16405.2263,80,2,0,0,-1,-1,0,62,81,19158,26,93,-36,35,76,1309,26,0,162,1,2,1,2,0,0,0,0,0,0,0,0,0,0,0,0,0,0,0,0,0,0,0,0,0,0,0,0,0,2,12.0,0.4082,replay
16405.75647,80,2,0,0,-1,-1,0,63,81,19156,27,93,-39,-20,79,1313,26,0,162,1,2,1,2,0,0,0,0,0,0,0,0,0,0,0,0,0,0,0,0,0,0,0,0,0,0,0,0,0,2,12.0,0.102991,replay
16406.31911,80,2,-1,0,-1,-1,0,63,81,19157,28,93,-25,-17,82,1325,26,0,162,1,2,1,2,0,0,0,0,0,0,0,0,0,0,0,0,0,0,0,0,0,0,0,0,0,0,0,0,0,2,12.0,0.001945,replay
16406.83505,80,0,0,0,0,0,0,63,80,19161,28,93,-15,-15,82,1325,26,0,162,1,2,1,2,0,0,0,0,0,0,0,0,0,0,0,0,0,0,0,0,0,0,0,0,0,0,0,0,0,2,12.0,0.001945,replay
16407.33584,80,1,0,0,-4,-3,0,63,81,19156,29,93,-20,-17,81,1352,26,0,162,1,2,1,2,0,0,0,0,0,0,0,0,0,0,0,0,0,0,0,0,0,0,0,0,0,0,0,0,0,2,12.0,0.001386,replay
16407.86671,80,1,-1,0,-1,-1,0,63,81,19158,29,93,-17,-13,82,1352,26,0,162,1,2,1,2,0,0,0,0,0,0,0,0,0,0,0,0,0,0,0,0,0,0,0,0,0,0,0,0,0,2,12.0,0.001386,replay
16408.38148,80,1,-1,0,0,0,0,63,81,19156,30,93,-10,-7,83,1382,230,3,44,0,1,0,1,0,0,336,2048,20,196,335,0,255,17,1,2,0,0,0,0,0,0,0,0,8889,8890,176,51,168,2,8.0,0.136206,replay
16408.91234,80,1,0,0,0,-1,0,63,81,19161,30,93,-5,-6,83,1389,26,0,162,1,2,1,2,0,0,0,0,0,0,0,0,0,0,0,0,0,0,0,0,0,0,0,0,0,0,0,0,0,2,12.0,0.466689,replay
16409.4441,80,0,0,0,0,0,0,64,80,19158,31,93,-4,-4,83,1391,26,0,162,1,2,1,2,0,0,0,0,0,0,0,0,0,0,0,0,0,0,0,0,0,0,0,0,0,0,0,0,0,2,12.0,0.202872,replay
16409.97465,70,0,0,0,0,0,0,64,79,19165,31,93,-5,-4,82,1395,26,0,162,1,2,1,2,0,0,0,0,0,0,0,0,0,0,0,0,0,0,0,0,0,0,0,0,0,0,0,0,0,2,12.0,0.103246,replay
16410.49055,80,0,0,0,-1,0,0,63,81,19159,32,93,-6,-5,83,1395,26,0,162,1,2,1,2,0,0,0,0,0,0,0,0,0,0,0,0,0,0,0,0,0,0,0,0,0,0,0,0,0,2,12.0,0.103246,replay
16411.0069,80,1,0,0,-8,0,0,63,82,19161,32,92,-8,-9,84,1440,26,0,162,1,2,1,2,0,0,0,0,0,0,0,0,0,0,0,0,0,0,0,0,0,0,0,0,0,0,0,0,0,2,12.0,0.102284,replay
16411.53848,80,3,0,0,0,-1,0,63,83,19157,33,92,-6,-18,83,1440,26,0,162,1,2,1,2,0,0,0,0,0,0,0,0,0,0,0,0,0,0,0,0,0,0,0,0,0,0,0,0,0,2,12.0,0.102284,replay
16412.10112,80,2,0,0,-1,-1,0,63,84,19159,33,92,18,-23,83,1494,226,3,44,0,1,0,1,0,0,381,2048,20,192,380,0,255,17,1,2,0,0,0,0,0,0,0,0,8889,8890,172,57,164,2,8.0,0.070912,replay
16412.61492,80,2,0,0,-1,0,0,63,82,19158,34,92,27,-29,81,1494,226,3,44,0,1,0,1,0,0,381,2048,20,192,380,0,255,17,1,2,0,0,0,0,0,0,0,0,8889,8890,172,57,164,2,8.0,0.070912,replay
16413.11602,80,2,0,0,-1,0,0,63,81,19158,34,92,36,-26,82,1507,26,0,162,1,2,1,2,0,0,0,0,0,0,0,0,0,0,0,0,0,0,0,0,0,0,0,0,0,0,0,0,0,2,12.0,0.00054,replay
16413.63096,80,2,0,0,-1,-1,0,63,81,19155,35,92,-25,-14,85,1523,26,0,162,1,2,1,2,0,0,0,0,0,0,0,0,0,0,0,0,0,0,0,0,0,0,0,0,0,0,0,0,0,2,12.0,0.001361,replay
16414.13189,80,2,-1,0,-1,2,0,63,80,19151,35,92,-12,-14,83,1523,26,0,162,1,2,1,2,0,0,0,0,0,0,0,0,0,0,0,0,0,0,0,0,0,0,0,0,0,0,0,0,0,2,12.0,0.001361,replay
16414.64682,80,0,0,0,0,0,0,64,80,19152,36,92,-8,-13,83,1587,26,0,162,1,2,1,2,0,0,0,0,0,0,0,0,0,0,0,0,0,0,0,0,0,0,0,0,0,0,0,0,0,2,12.0,0.001353,replay
16415.16349,80,0,-1,0,-1,-2,0,64,80,19154,36,92,-9,-19,82,1599,26,0,162,1,2,1,2,0,0,0,0,0,0,0,0,0,0,0,0,0,0,0,0,0,0,0,0,0,0,0,0,0,2,12.0,0.614756,replay
16415.69323,80,0,-1,0,-1,-1,0,64,80,19155,37,92,-11,-16,82,1621,231,3,44,0,1,0,1,0,0,423,2048,20,197,421,0,255,17,1,2,0,0,0,0,0,0,0,0,8889,8890,177,61,169,2,8.0,0.004512,replay
16416.21104,70,0,-1,0,-1,0,0,64,79,19149,37,91,-5,-9,82,1630,230,3,44,0,1,0,1,0,0,424,2048,20,196,422,0,255,17,1,2,0,0,0,0,0,0,0,0,8889,8890,176,60,168,2,8.0,0.004501,replay
16416.74197,70,0,-1,0,0,0,0,64,78,19145,38,91,-7,-6,80,1648,26,0,162,1,2,1,2,0,0,0,0,0,0,0,0,0,0,0,0,0,0,0,0,0,0,0,0,0,0,0,0,0,2,12.0,0.101834,replay
16417.25505,70,0,0,0,-1,0,9,64,78,19147,39,91,-5,-7,80,1658,26,0,162,1,2,1,2,0,0,0,0,0,0,0,0,0,0,0,0,0,0,0,0,0,0,0,0,0,0,0,0,0,2,12.0,0.102207,replay
16417.77308,70,0,0,0,0,-1,39,63,78,19148,39,91,-7,-9,81,1658,26,0,162,1,2,1,2,0,0,0,0,0,0,0,0,0,0,0,0,0,0,0,0,0,0,0,0,0,0,0,0,0,2,12.0,0.102207,replay
16418.30308,70,0,0,0,0,-1,75,63,79,19151,40,91,-8,-15,81,1712,26,0,162,1,2,1,2,0,0,0,0,0,0,0,0,0,0,0,0,0,0,0,0,0,0,0,0,0,0,0,0,0,2,12.0,0.00244,replay
16418.82019,70,0,0,0,0,0,105,64,79,19155,40,91,-7,-18,81,1725,26,0,162,1,2,1,2,0,0,0,0,0,0,0,0,0,0,0,0,0,0,0,0,0,0,0,0,0,0,0,0,0,2,12.0,0.614307,replay
16419.35125,70,0,0,0,0,0,135,64,79,19152,41,91,-5,-23,81,1756,229,3,44,0,1,0,1,0,0,467,2048,20,195,465,0,255,17,1,2,0,0,0,0,0,0,0,0,8889,8890,175,63,167,2,8.0,0.031689,replay
16419.86787,70,0,0,0,0,0,164,64,80,19155,41,91,-4,-26,81,1763,230,3,44,0,1,0,1,0,0,468,2048,20,196,466,0,255,17,1,2,0,0,0,0,0,0,0,0,8889,8890,176,62,168,2,8.0,0.041852,replay
16420.39677,70,0,0,0,0,0,175,64,80,19157,42,91,-7,-26,81,1787,26,0,162,1,2,1,2,0,0,0,0,0,0,0,0,0,0,0,0,0,0,0,0,0,0,0,0,0,0,0,0,0,2,12.0,0.102748,replay
16420.91202,70,0,0,0,0,0,177,65,80,19158,42,91,-12,-25,81,1811,26,0,162,1,2,1,2,0,0,0,0,0,0,0,0,0,0,0,0,0,0,0,0,0,0,0,0,0,0,0,0,0,2,12.0,0.103302,replay
16421.4429,70,0,0,0,0,0,177,65,81,19151,43,90,-8,-22,82,1859,26,0,162,1,2,1,2,0,0,0,0,0,0,0,0,0,0,0,0,0,0,0,0,0,0,0,0,0,0,0,0,0,2,12.0,0.512115,replay
16421.96069,80,0,0,0,-8,0,177,65,82,19149,43,90,-8,-17,83,1917,26,0,162,1,2,1,2,0,0,0,0,0,0,0,0,0,0,0,0,0,0,0,0,0,0,0,0,0,0,0,0,0,2,12.0,0.000278,replay
16422.47446,80,-3,0,0,1,0,177,65,81,19155,44,90,-20,-18,83,1927,26,0,162,1,2,1,2,0,0,0,0,0,0,0,0,0,0,0,0,0,0,0,0,0,0,0,0,0,0,0,0,0,2,12.0,0.715598,replay
16423.00528,80,-2,0,0,-1,0,177,65,81,19147,44,90,-48,-9,80,1943,26,0,162,1,2,1,2,0,0,0,0,0,0,0,0,0,0,0,0,0,0,0,0,0,0,0,0,0,0,0,0,0,2,12.0,2.4e-05,replay
16423.52151,80,-2,0,0,-1,0,177,65,81,19154,45,90,-62,-8,76,1952,26,0,162,1,2,1,2,0,0,0,0,0,0,0,0,0,0,0,0,0,0,0,0,0,0,0,0,0,0,0,0,0,2,12.0,0.41079,replay
16424.03838,80,-2,0,0,-1,0,178,65,80,19159,45,90,10,-21,80,1956,26,0,162,1,2,1,2,0,0,0,0,0,0,0,0,0,0,0,0,0,0,0,0,0,0,0,0,0,0,0,0,0,2,12.0,0.203022,replay
16424.56831,70,-1,0,0,0,-1,178,64,79,19150,46,90,-2,-15,81,1964,26,0,162,1,2,1,2,0,0,0,0,0,0,0,0,0,0,0,0,0,0,0,0,0,0,0,0,0,0,0,0,0,2,12.0,0.062943,replay
16425.09802,70,0,0,0,0,1,177,64,79,19154,46,90,-10,-16,80,1964,26,0,162,1,2,1,2,0,0,0,0,0,0,0,0,0,0,0,0,0,0,0,0,0,0,0,0,0,0,0,0,0,2,12.0,0.062943,replay
16425.61464,70,0,0,0,1,3,177,65,80,19153,47,90,-9,-11,81,1998,26,0,162,1,2,1,2,0,0,0,0,0,0,0,0,0,0,0,0,0,0,0,0,0,0,0,0,0,0,0,0,0,2,12.0,0.001338,replay
16426.12968,70,0,-1,0,-1,0,177,65,80,19154,47,90,-6,-4,81,1998,26,0,162,1,2,1,2,0,0,0,0,0,0,0,0,0,0,0,0,0,0,0,0,0,0,0,0,0,0,0,0,0,2,12.0,0.001338,replay
16426.6473,70,0,0,0,0,0,177,65,80,19150,48,90,-6,-4,81,2011,26,0,162,1,2,1,2,0,0,0,0,0,0,0,0,0,0,0,0,0,0,0,0,0,0,0,0,0,0,0,0,0,2,12.0,0.001982,replay
16427.17788,80,0,0,0,0,0,177,65,80,19155,48,90,-10,1,80,2035,235,3,44,0,1,0,1,0,0,556,2048,20,201,552,0,255,17,1,2,0,0,0,0,0,0,0,0,8889,8890,181,52,173,2,8.0,0.050822,replay
16427.69594,80,-2,0,0,-8,0,177,65,81,19150,49,90,-7,-2,81,2043,26,0,162,1,2,1,2,0,0,0,0,0,0,0,0,0,0,0,0,0,0,0,0,0,0,0,0,0,0,0,0,0,2,12.0,0.10241,replay
16428.22485,80,-3,0,0,0,0,178,65,80,19155,49,89,-23,16,78,2055,26,0,314,1,2,1,2,0,0,188,0,0,0,0,0,0,0,0,0,0,0,0,0,0,0,0,0,0,0,0,0,0,0,12.0,0.091504,replay
16428.7416,80,-2,0,0,-1,-1,178,65,80,19154,50,89,-35,18,79,2055,26,0,314,1,2,1,2,0,0,188,0,0,0,0,0,0,0,0,0,0,0,0,0,0,0,0,0,0,0,0,0,0,0,12.0,0.091504,replay
16429.27274,80,-2,0,0,-1,-1,178,65,80,19149,51,89,-34,-8,83,2055,26,0,314,1,2,1,2,0,0,188,0,0,0,0,0,0,0,0,0,0,0,0,0,0,0,0,0,0,0,0,0,0,0,12.0,0.091504,replay
16429.80248,80,-2,0,0,-1,-1,178,65,80,19157,51,89,-25,-14,82,2055,26,0,314,1,2,1,2,0,0,188,0,0,0,0,0,0,0,0,0,0,0,0,0,0,0,0,0,0,0,0,0,0,0,12.0,0.091504,replay
16430.31948,80,-1,1,0,0,-1,178,65,80,19155,52,89,-15,-15,82,2055,26,0,314,1,2,1,2,0,0,188,0,0,0,0,0,0,0,0,0,0,0,0,0,0,0,0,0,0,0,0,0,0,0,12.0,0.091504,replay
16430.83544,80,0,1,0,0,3,177,64,80,19152,52,89,-3,-6,84,2154,26,0,162,1,2,1,2,0,0,0,0,0,0,0,0,0,0,0,0,0,0,0,0,0,0,0,0,0,0,0,0,0,2,12.0,2.4e-05,replay
16431.36548,80,0,0,0,-1,-3,177,64,81,19159,53,89,-4,-8,84,2154,26,0,162,1,2,1,2,0,0,0,0,0,0,0,0,0,0,0,0,0,0,0,0,0,0,0,0,0,0,0,0,0,2,12.0,2.4e-05,replay
16431.88221,80,0,1,0,-1,0,177,65,81,19153,53,89,-6,-10,84,2166,26,0,162,1,2,1,2,0,0,0,0,0,0,0,0,0,0,0,0,0,0,0,0,0,0,0,0,0,0,0,0,0,2,12.0,1.125546,replay
16432.41107,80,0,1,0,-1,-1,177,65,81,19157,54,89,-5,-9,85,2178,235,3,320,0,1,0,1,0,0,617,2048,20,201,615,0,255,17,1,2,0,0,0,0,0,0,0,0,8889,8890,181,42,173,2,8.0,0.002436,replay
16432.91321,80,0,1,0,-1,0,177,66,81,19157,54,89,-4,-6,84,2222,26,0,162,1,2,1,2,0,0,0,0,0,0,0,0,0,0,0,0,0,0,0,0,0,0,0,0,0,0,0,0,0,2,12.0,0.102346,replay
16433.44305,70,0,0,0,0,0,177,66,80,19156,55,89,-4,-4,83,2230,26,0,162,1,2,1,2,0,0,0,0,0,0,0,0,0,0,0,0,0,0,0,0,0,0,0,0,0,0,0,0,0,2,12.0,0.103538,replay
16433.95964,80,0,0,0,-1,0,177,65,81,19156,55,89,-5,-6,84,2230,26,0,162,1,2,1,2,0,0,0,0,0,0,0,0,0,0,0,0,0,0,0,0,0,0,0,0,0,0,0,0,0,2,12.0,0.103538,replay
16434.49037,80,0,0,0,-7,0,177,65,82,19149,56,88,-8,-13,84,2266,70,3,162,1,2,1,2,0,0,11,2048,20,36,10954,64,64,17,3,1,0,0,0,0,0,0,0,0,8889,8889,16,1,8,2,8.0,0.023365,replay
16435.02023,80,-3,0,0,0,0,177,65,81,19150,56,88,5,-17,83,2318,26,0,162,1,2,1,2,0,0,0,0,0,0,0,0,0,0,0,0,0,0,0,0,0,0,0,0,0,0,0,0,0,2,12.0,0.102585,replay
16435.5394,80,-2,0,0,-1,0,178,65,80,19153,57,88,18,-22,81,2346,26,0,162,1,2,1,2,0,0,0,0,0,0,0,0,0,0,0,0,0,0,0,0,0,0,0,0,0,0,0,0,0,2,12.0,0.101349,replay
16436.06898,80,-2,0,0,-1,-1,178,65,79,19141,57,88,31,-29,79,2346,26,0,162,1,2,1,2,0,0,0,0,0,0,0,0,0,0,0,0,0,0,0,0,0,0,0,0,0,0,0,0,0,2,12.0,0.101349,replay
16436.59998,80,-2,0,0,-1,-1,177,65,78,19142,58,88,-57,6,72,2383,26,0,162,1,2,1,2,0,0,0,0,0,0,0,0,0,0,0,0,0,0,0,0,0,0,0,0,0,0,0,0,0,2,12.0,1.023918,replay
16437.13172,70,-1,1,0,0,-2,177,65,78,19144,58,88,-33,-13,81,2383,26,0,162,1,2,1,2,0,0,0,0,0,0,0,0,0,0,0,0,0,0,0,0,0,0,0,0,0,0,0,0,0,2,12.0,1.023918,replay
16437.66345,70,-1,1,0,0,-1,177,65,78,19150,59,88,-33,-18,76,2383,26,0,162,1,2,1,2,0,0,0,0,0,0,0,0,0,0,0,0,0,0,0,0,0,0,0,0,0,0,0,0,0,2,12.0,1.023918,replay
16438.1943,80,0,1,0,0,2,177,65,79,19154,59,88,-22,-10,81,2439,234,3,44,0,1,0,1,0,0,687,2048,20,200,684,0,255,17,1,2,0,0,0,0,0,0,0,0,8889,8890,180,45,172,2,8.0,0.074106,replay
16438.72429,80,0,0,0,0,0,178,65,80,19143,60,88,-26,-13,79,2439,234,3,44,0,1,0,1,0,0,687,2048,20,200,684,0,255,17,1,2,0,0,0,0,0,0,0,0,8889,8890,180,45,172,2,8.0,0.074106,replay
16439.22495,80,-2,0,0,-1,-1,177,65,81,19157,60,88,-26,-16,79,2439,234,3,44,0,1,0,1,0,0,687,2048,20,200,684,0,255,17,1,2,0,0,0,0,0,0,0,0,8889,8890,180,45,172,2,8.0,0.074106,replay
16439.73991,80,-1,1,0,0,0,177,65,80,19147,61,88,-11,-10,82,2439,234,3,44,0,1,0,1,0,0,687,2048,20,200,684,0,255,17,1,2,0,0,0,0,0,0,0,0,8889,8890,180,45,172,2,8.0,0.074106,replay
16440.25801,80,0,1,0,0,0,177,65,81,19149,62,88,-4,-8,83,2439,234,3,44,0,1,0,1,0,0,687,2048,20,200,684,0,255,17,1,2,0,0,0,0,0,0,0,0,8889,8890,180,45,172,2,8.0,0.074106,replay
16440.78686,80,0,0,0,0,-1,178,66,81,19154,62,88,-6,-5,83,2439,234,3,44,0,1,0,1,0,0,687,2048,20,200,684,0,255,17,1,2,0,0,0,0,0,0,0,0,8889,8890,180,45,172,2,8.0,0.074106,replay
16441.3033,70,0,0,0,0,-1,177,66,80,19158,63,88,-3,-7,83,2550,98,0,320,2,1,2,1,0,0,773,0,0,0,0,0,0,0,0,0,0,0,0,0,0,0,0,0,0,0,0,0,0,0,5.0,0.003991,replay
16441.83436,80,0,1,0,-2,0,177,66,81,19157,63,88,-7,-5,83,2602,26,0,162,1,2,1,2,0,0,0,0,0,0,0,0,0,0,0,0,0,0,0,0,0,0,0,0,0,0,0,0,0,2,12.0,0.014917,replay
16442.36546,70,0,0,0,0,-1,-171,66,80,19161,64,87,-6,-4,82,2624,26,0,162,1,2,1,2,0,0,0,0,0,0,0,0,0,0,0,0,0,0,0,0,0,0,0,0,0,0,0,0,0,2,12.0,0.054928,replay
16442.88174,70,0,0,0,0,-1,-140,66,79,19155,64,87,-4,-8,82,2643,26,0,162,1,2,1,2,0,0,0,0,0,0,0,0,0,0,0,0,0,0,0,0,0,0,0,0,0,0,0,0,0,2,12.0,0.103162,replay
16443.41271,70,0,0,0,0,-1,-103,66,80,19158,65,87,-9,-12,83,2643,26,0,162,1,2,1,2,0,0,0,0,0,0,0,0,0,0,0,0,0,0,0,0,0,0,0,0,0,0,0,0,0,2,12.0,0.103162,replay
16443.92734,80,0,0,0,1,0,-73,66,82,19162,65,87,-7,-20,84,2674,26,0,162,1,2,1,2,0,0,0,0,0,0,0,0,0,0,0,0,0,0,0,0,0,0,0,0,0,0,0,0,0,2,12.0,1.023264,replay
16444.42915,80,0,0,0,1,0,-49,66,83,19160,66,87,-8,-22,85,2674,26,0,162,1,2,1,2,0,0,0,0,0,0,0,0,0,0,0,0,0,0,0,0,0,0,0,0,0,0,0,0,0,2,12.0,1.023264,replay
16444.94295,80,0,0,0,0,1,-19,66,81,19156,66,87,-8,-25,84,2674,26,0,162,1,2,1,2,0,0,0,0,0,0,0,0,0,0,0,0,0,0,0,0,0,0,0,0,0,0,0,0,0,2,12.0,1.023264,replay
16445.45893,70,0,0,0,0,1,-6,66,79,19155,67,87,-15,-24,82,2704,26,0,162,1,2,1,2,0,0,0,0,0,0,0,0,0,0,0,0,0,0,0,0,0,0,0,0,0,0,0,0,0,2,12.0,2.4e-05,replay
16445.9898,80,0,0,0,0,0,-2,66,81,19155,67,87,-200,-200,-200,2709,26,0,162,1,2,1,2,0,0,0,0,0,0,0,0,0,0,0,0,0,0,0,0,0,0,0,0,0,0,0,0,0,2,12.0,0.102948,replay
16446.50657,80,0,0,0,0,0,-1,66,80,19153,68,87,-200,-200,-200,2728,26,0,162,1,2,1,2,0,0,0,0,0,0,0,0,0,0,0,0,0,0,0,0,0,0,0,0,0,0,0,0,0,2,12.0,0.103231,replay
16447.02248,70,0,0,3,0,0,-1,66,71,19150,68,87,-200,-200,-200,2732,236,3,320,0,1,0,1,0,0,789,2048,20,202,789,0,255,17,1,2,0,0,0,0,0,0,0,0,8889,8890,182,26,174,2,8.0,0.19765,replay
16447.53726,50,0,0,4,0,0,-1,66,49,19127,69,87,-200,-200,-200,2744,26,0,162,1,2,1,2,0,0,0,0,0,0,0,0,0,0,0,0,0,0,0,0,0,0,0,0,0,0,0,0,0,2,12.0,0.723819,replay
16448.054,20,0,0,4,0,0,-1,65,20,19098,69,86,-200,-200,-200,2767,26,0,162,1,2,1,2,0,0,0,0,0,0,0,0,0,0,0,0,0,0,0,0,0,0,0,0,0,0,0,0,0,2,12.0,0.102287,replay
16448.58473,0,0,0,2,0,0,-1,65,10,18754,70,86,-200,-200,-200,2767,26,0,162,1,2,1,2,0,0,0,0,0,0,0,0,0,0,0,0,0,0,0,0,0,0,0,0,0,0,0,0,0,2,12.0,0.102287,replay
16449.10095,10,0,0,-1,0,0,-1,65,10,18989,70,86,-200,-200,-200,2791,86,2,44,1,0,1,0,0,0,291,2048,20,52,38079,64,128,6,2,5,58544,53,181426785,0,32,2,64240,1,0,0,0,0,0,2,8.0,0.00968,replay
16449.63094,10,0,0,-1,-1,0,-1,65,13,19067,71,86,-200,-200,-200,2791,86,2,44,1,0,1,0,0,0,291,2048,20,52,38079,64,128,6,2,5,58544,53,181426785,0,32,2,64240,1,0,0,0,0,0,2,8.0,0.00968,replay
16450.16219,20,0,0,-1,-1,0,-1,65,19,19091,71,86,-200,-200,-200,2812,236,3,320,0,1,0,1,0,0,831,2048,20,202,830,0,255,17,1,2,0,0,0,0,0,0,0,0,8889,8890,182,17,174,2,8.0,0.170544,replay
16450.679,20,0,3,0,0,8,-1,65,22,19108,72,86,-200,-200,-200,2812,236,3,320,0,1,0,1,0,0,831,2048,20,202,830,0,255,17,1,2,0,0,0,0,0,0,0,0,8889,8890,182,17,174,2,8.0,0.170544,replay
16451.20803,30,0,8,0,-1,5,-1,65,25,19110,73,86,-200,-200,-200,2833,26,0,162,1,2,1,2,0,0,0,0,0,0,0,0,0,0,0,0,0,0,0,0,0,0,0,0,0,0,0,0,0,2,12.0,0.058478,replay
16451.75572,30,0,9,0,0,4,-1,66,26,19117,73,86,-200,-200,-200,2855,26,0,162,1,2,1,2,0,0,0,0,0,0,0,0,0,0,0,0,0,0,0,0,0,0,0,0,0,0,0,0,0,2,12.0,0.029064,replay
16452.25654,30,0,9,0,0,4,-1,66,27,19122,73,86,-200,-200,-200,2855,26,0,162,1,2,1,2,0,0,0,0,0,0,0,0,0,0,0,0,0,0,0,0,0,0,0,0,0,0,0,0,0,2,12.0,0.029064,replay
16452.78843,30,0,9,0,0,5,-1,66,27,19124,74,86,-200,-200,-200,2930,238,3,44,0,1,0,1,0,0,860,2048,20,204,862,0,255,17,1,2,0,0,0,0,0,0,0,0,8889,8890,184,7,176,2,8.0,0.068911,replay
16453.30304,30,0,9,0,-1,5,-1,66,28,19120,75,86,-200,-200,-200,2935,26,0,162,1,2,1,2,0,0,0,0,0,0,0,0,0,0,0,0,0,0,0,0,0,0,0,0,0,0,0,0,0,2,12.0,0.306539,replay
16453.81895,30,0,9,0,0,5,-1,65,30,19122,75,86,-200,-200,-200,2941,26,0,162,1,2,1,2,0,0,0,0,0,0,0,0,0,0,0,0,0,0,0,0,0,0,0,0,0,0,0,0,0,2,12.0,0.410493,replay
16454.31992,30,0,9,0,0,6,-1,65,30,19123,76,86,-200,-200,-200,2943,26,0,162,1,2,1,2,0,0,0,0,0,0,0,0,0,0,0,0,0,0,0,0,0,0,0,0,0,0,0,0,0,2,12.0,0.102273,replay
16454.83656,30,0,9,0,0,6,-1,65,29,19130,76,86,-200,-200,-200,2943,26,0,162,1,2,1,2,0,0,0,0,0,0,0,0,0,0,0,0,0,0,0,0,0,0,0,0,0,0,0,0,0,2,12.0,0.102273,replay
16556.08237,70,0,0,0,0,0,0,67,84,19147,11,82,6,15,85,1366,26,0,162,1,2,1,2,0,0,0,0,0,0,0,0,0,0,0,0,0,0,0,0,0,0,0,0,0,0,0,0,0,2,12.0,0.00052,replay
16556.59799,70,0,0,0,0,0,0,67,83,19147,11,82,5,12,85,1387,26,0,162,1,2,1,2,0,0,0,0,0,0,0,0,0,0,0,0,0,0,0,0,0,0,0,0,0,0,0,0,0,2,12.0,0.154403,replay
16557.12954,70,0,0,0,0,0,0,68,82,19154,12,82,6,13,84,1387,26,0,162,1,2,1,2,0,0,0,0,0,0,0,0,0,0,0,0,0,0,0,0,0,0,0,0,0,0,0,0,0,2,12.0,0.154403,replay
16557.63122,70,0,0,0,-1,-2,0,68,83,19144,12,82,6,15,83,1418,26,0,162,1,2,1,2,0,0,0,0,0,0,0,0,0,0,0,0,0,0,0,0,0,0,0,0,0,0,0,0,0,2,12.0,0.102837,replay
16558.1621,70,0,-1,0,-1,0,0,67,82,19148,13,82,4,10,83,1418,26,0,162,1,2,1,2,0,0,0,0,0,0,0,0,0,0,0,0,0,0,0,0,0,0,0,0,0,0,0,0,0,2,12.0,0.102837,replay
16558.66276,70,0,-1,0,-2,0,0,67,81,19147,13,82,4,7,83,1477,86,2,44,1,0,1,0,0,0,128,2048,20,52,38109,64,128,6,2,4,61140,53,3489975190,0,32,2,64240,1,0,0,0,0,0,2,8.0,0.045492,replay
16559.19337,70,0,0,0,0,0,0,68,81,19146,14,82,2,5,83,1483,228,3,44,0,1,0,1,0,0,147,2048,20,194,147,0,255,17,1,2,0,0,0,0,0,0,0,0,8889,8890,174,11,166,2,8.0,0.07392,replay
16559.70999,70,0,0,0,0,0,0,68,82,19150,14,82,5,8,84,1491,26,0,162,1,2,1,2,0,0,0,0,0,0,0,0,0,0,0,0,0,0,0,0,0,0,0,0,0,0,0,0,0,2,12.0,0.102801,replay
16560.21962,70,0,0,0,0,0,0,67,83,19142,15,82,6,11,84,1495,26,0,162,1,2,1,2,0,0,0,0,0,0,0,0,0,0,0,0,0,0,0,0,0,0,0,0,0,0,0,0,0,2,12.0,0.102366,replay
16560.73427,70,0,0,0,0,0,0,67,83,19146,15,82,9,15,83,1495,26,0,162,1,2,1,2,0,0,0,0,0,0,0,0,0,0,0,0,0,0,0,0,0,0,0,0,0,0,0,0,0,2,12.0,0.102366,replay
16561.24987,70,0,0,0,0,0,0,67,83,19149,16,82,9,10,84,1552,26,0,162,1,2,1,2,0,0,0,0,0,0,0,0,0,0,0,0,0,0,0,0,0,0,0,0,0,0,0,0,0,2,12.0,1.023858,replay
16561.76249,70,0,0,0,0,0,0,67,82,19146,16,82,8,14,83,1633,26,0,162,1,2,1,2,0,0,0,0,0,0,0,0,0,0,0,0,0,0,0,0,0,0,0,0,0,0,0,0,0,2,12.0,0.613697,replay
16562.28709,70,0,0,0,0,0,0,68,81,19150,17,82,8,15,82,1647,228,3,44,0,1,0,1,0,0,186,2048,20,194,186,0,255,17,1,2,0,0,0,0,0,0,0,0,8889,8890,174,14,166,2,8.0,0.318407,replay
16562.80374,70,0,0,0,0,0,0,68,82,19154,17,82,7,15,82,1659,229,3,44,0,1,0,1,0,0,189,2048,20,195,189,0,255,17,1,2,0,0,0,0,0,0,0,0,8889,8890,175,16,167,2,8.0,0.10223,replay
16563.36453,70,1,0,0,-8,0,0,68,83,19146,18,82,10,17,82,1669,26,0,162,1,2,1,2,0,0,0,0,0,0,0,0,0,0,0,0,0,0,0,0,0,0,0,0,0,0,0,0,0,2,12.0,0.101608,replay
16563.89626,70,3,0,0,1,0,0,68,83,19147,18,82,-2,9,85,1677,26,0,162,1,2,1,2,0,0,0,0,0,0,0,0,0,0,0,0,0,0,0,0,0,0,0,0,0,0,0,0,0,2,12.0,0.101931,replay
16564.41097,70,2,0,0,-1,-1,0,67,84,19149,19,82,-25,14,84,1677,26,0,162,1,2,1,2,0,0,0,0,0,0,0,0,0,0,0,0,0,0,0,0,0,0,0,0,0,0,0,0,0,2,12.0,0.101931,replay
16564.91197,70,2,0,0,-1,-1,0,67,85,19141,19,82,-33,22,84,1708,26,0,162,1,2,1,2,0,0,0,0,0,0,0,0,0,0,0,0,0,0,0,0,0,0,0,0,0,0,0,0,0,2,12.0,0.102513,replay
16565.43932,70,2,0,0,-1,-1,0,67,85,19141,20,82,42,7,83,1708,26,0,162,1,2,1,2,0,0,0,0,0,0,0,0,0,0,0,0,0,0,0,0,0,0,0,0,0,0,0,0,0,2,12.0,0.102513,replay
16565.94225,70,2,-1,0,-1,-1,0,67,85,19142,21,82,35,5,82,1718,26,0,162,1,2,1,2,0,0,0,0,0,0,0,0,0,0,0,0,0,0,0,0,0,0,0,0,0,0,0,0,0,2,12.0,0.716151,replay
16566.45887,70,0,0,0,1,0,0,68,84,19144,21,82,18,1,85,1735,26,0,162,1,2,1,2,0,0,0,0,0,0,0,0,0,0,0,0,0,0,0,0,0,0,0,0,0,0,0,0,0,2,12.0,3.7e-05,replay
16566.98958,70,0,0,0,-4,0,0,68,84,19144,22,82,21,2,83,1747,26,0,162,1,2,1,2,0,0,0,0,0,0,0,0,0,0,0,0,0,0,0,0,0,0,0,0,0,0,0,0,0,2,12.0,0.103059,replay
16567.50592,70,1,0,0,0,0,0,68,82,19137,22,82,13,5,83,1757,26,0,162,1,2,1,2,0,0,0,0,0,0,0,0,0,0,0,0,0,0,0,0,0,0,0,0,0,0,0,0,0,2,12.0,0.002705,replay
16568.02163,70,1,0,0,0,-1,0,68,81,19136,23,82,6,6,82,1757,26,0,162,1,2,1,2,0,0,0,0,0,0,0,0,0,0,0,0,0,0,0,0,0,0,0,0,0,0,0,0,0,2,12.0,0.002705,replay
16568.53725,70,0,0,0,0,-1,0,67,81,19137,23,82,2,7,81,1779,26,0,162,1,2,1,2,0,0,0,0,0,0,0,0,0,0,0,0,0,0,0,0,0,0,0,0,0,0,0,0,0,2,12.0,0.102789,replay
16569.08379,70,0,0,0,0,0,0,67,80,19142,24,82,2,7,81,1779,26,0,162,1,2,1,2,0,0,0,0,0,0,0,0,0,0,0,0,0,0,0,0,0,0,0,0,0,0,0,0,0,2,12.0,0.102789,replay
16569.60146,70,0,0,0,0,0,0,68,81,19144,24,82,2,7,82,1779,26,0,162,1,2,1,2,0,0,0,0,0,0,0,0,0,0,0,0,0,0,0,0,0,0,0,0,0,0,0,0,0,2,12.0,0.102789,replay
16570.11614,70,0,-1,0,0,-6,0,68,81,19134,25,82,3,10,82,1810,26,0,162,1,2,1,2,0,0,0,0,0,0,0,0,0,0,0,0,0,0,0,0,0,0,0,0,0,0,0,0,0,2,12.0,2.9e-05,replay
16570.63082,70,0,-2,0,0,0,0,68,81,19135,25,82,4,5,82,1821,26,0,162,1,2,1,2,0,0,0,0,0,0,0,0,0,0,0,0,0,0,0,0,0,0,0,0,0,0,0,0,0,2,12.0,0.098783,replay
16571.16079,70,0,-2,0,0,0,0,67,81,19133,26,82,6,-2,82,1832,26,0,162,1,2,1,2,0,0,0,0,0,0,0,0,0,0,0,0,0,0,0,0,0,0,0,0,0,0,0,0,0,2,12.0,0.001973,replay
16571.69339,70,0,-2,0,0,1,0,67,81,19133,26,82,10,-13,82,1832,26,0,162,1,2,1,2,0,0,0,0,0,0,0,0,0,0,0,0,0,0,0,0,0,0,0,0,0,0,0,0,0,2,12.0,0.001973,replay
16572.22418,70,0,0,0,0,0,0,67,81,19142,27,82,11,-20,82,1865,26,0,162,1,2,1,2,0,0,0,0,0,0,0,0,0,0,0,0,0,0,0,0,0,0,0,0,0,0,0,0,0,2,12.0,0.10243,replay
16572.72493,70,0,2,0,0,0,0,67,82,19137,27,82,7,-15,82,1865,26,0,162,1,2,1,2,0,0,0,0,0,0,0,0,0,0,0,0,0,0,0,0,0,0,0,0,0,0,0,0,0,2,12.0,0.10243,replay
16573.27158,70,0,2,0,0,0,0,67,81,19134,28,82,6,5,82,1873,26,0,162,1,2,1,2,0,0,0,0,0,0,0,0,0,0,0,0,0,0,0,0,0,0,0,0,0,0,0,0,0,2,12.0,0.715899,replay
16573.78441,70,0,0,0,-1,0,0,67,80,19135,28,82,8,23,81,1892,230,3,44,0,1,0,1,0,0,319,2048,20,196,318,0,255,17,1,2,0,0,0,0,0,0,0,0,8889,8890,176,26,168,2,8.0,0.068434,replay
16574.29674,70,0,-1,0,-1,-4,0,67,79,19128,29,82,7,28,80,1901,26,0,162,1,2,1,2,0,0,0,0,0,0,0,0,0,0,0,0,0,0,0,0,0,0,0,0,0,0,0,0,0,2,12.0,0.001344,replay
16574.81269,70,0,-1,0,0,0,0,67,80,19134,29,82,4,23,80,1912,26,0,162,1,2,1,2,0,0,0,0,0,0,0,0,0,0,0,0,0,0,0,0,0,0,0,0,0,0,0,0,0,2,12.0,0.028143,replay
16575.33107,70,0,-1,0,0,0,0,67,79,19133,30,82,1,13,81,1912,26,0,162,1,2,1,2,0,0,0,0,0,0,0,0,0,0,0,0,0,0,0,0,0,0,0,0,0,0,0,0,0,2,12.0,0.028143,replay
16575.86277,70,0,-1,0,0,0,0,67,79,19130,30,82,0,9,80,1940,26,0,162,1,2,1,2,0,0,0,0,0,0,0,0,0,0,0,0,0,0,0,0,0,0,0,0,0,0,0,0,0,2,12.0,1.022783,replay
16576.38048,70,0,0,0,0,-1,0,68,79,19134,31,82,0,7,81,1940,26,0,162,1,2,1,2,0,0,0,0,0,0,0,0,0,0,0,0,0,0,0,0,0,0,0,0,0,0,0,0,0,2,12.0,1.022783,replay
16576.91206,70,0,-1,0,0,0,0,68,80,19131,31,82,0,5,81,1962,26,0,162,1,2,1,2,0,0,0,0,0,0,0,0,0,0,0,0,0,0,0,0,0,0,0,0,0,0,0,0,0,2,12.0,0.614306,replay
16577.41336,70,3,0,0,-8,0,0,68,81,19129,32,82,-3,5,81,2007,232,3,44,0,1,0,1,0,0,362,2048,20,198,361,0,255,17,1,2,0,0,0,0,0,0,0,0,8889,8890,178,23,170,2,8.0,0.054197,replay
16577.92598,70,2,0,0,0,-1,0,68,80,19131,33,82,-27,16,78,2020,26,0,162,1,2,1,2,0,0,0,0,0,0,0,0,0,0,0,0,0,0,0,0,0,0,0,0,0,0,0,0,0,2,12.0,0.099813,replay
16578.44485,70,2,0,0,0,-1,0,67,81,19133,33,82,-39,19,78,2044,26,0,162,1,2,1,2,0,0,0,0,0,0,0,0,0,0,0,0,0,0,0,0,0,0,0,0,0,0,0,0,0,2,12.0,3.6e-05,replay
16578.94554,70,2,0,0,0,-2,0,67,80,19127,34,82,-31,-13,79,2048,26,0,162,1,2,1,2,0,0,0,0,0,0,0,0,0,0,0,0,0,0,0,0,0,0,0,0,0,0,0,0,0,2,12.0,0.202871,replay
16579.45843,70,1,-1,0,0,-2,0,68,81,19125,34,82,-19,-18,80,2048,26,0,162,1,2,1,2,0,0,0,0,0,0,0,0,0,0,0,0,0,0,0,0,0,0,0,0,0,0,0,0,0,2,12.0,0.202871,replay
16579.97623,70,1,-1,0,0,-2,0,68,81,19132,35,82,-7,-12,82,2048,26,0,162,1,2,1,2,0,0,0,0,0,0,0,0,0,0,0,0,0,0,0,0,0,0,0,0,0,0,0,0,0,2,12.0,0.202871,replay
16580.52108,70,0,0,0,0,1,0,68,80,19131,35,82,-5,-6,81,2048,26,0,162,1,2,1,2,0,0,0,0,0,0,0,0,0,0,0,0,0,0,0,0,0,0,0,0,0,0,0,0,0,2,12.0,0.202871,replay
16581.03969,70,0,0,0,0,0,0,68,81,19132,36,82,-4,-4,81,2107,86,2,44,1,0,1,0,0,0,196,2048,20,52,4096,64,128,6,2,3,57111,53,851096495,0,32,2,64240,1,0,0,0,0,0,2,8.0,0.008507,replay
16581.58423,70,0,0,0,0,-1,0,67,81,19129,36,82,-6,-10,82,2112,26,0,162,1,2,1,2,0,0,0,0,0,0,0,0,0,0,0,0,0,0,0,0,0,0,0,0,0,0,0,0,0,2,12.0,0.001631,replay
16582.11578,70,0,0,0,-5,-1,0,67,81,19129,37,82,-7,-16,81,2132,26,0,162,1,2,1,2,0,0,0,0,0,0,0,0,0,0,0,0,0,0,0,0,0,0,0,0,0,0,0,0,0,2,12.0,0.000515,replay
16582.63186,70,4,0,0,1,0,0,68,80,19125,37,82,1,-21,80,2135,26,0,162,1,2,1,2,0,0,0,0,0,0,0,0,0,0,0,0,0,0,0,0,0,0,0,0,0,0,0,0,0,2,12.0,0.102181,replay
16583.16282,70,2,0,0,-1,-1,0,68,80,19125,38,82,22,-30,76,2150,26,0,162,1,2,1,2,0,0,0,0,0,0,0,0,0,0,0,0,0,0,0,0,0,0,0,0,0,0,0,0,0,2,12.0,0.922255,replay
16583.67847,70,2,0,0,-1,-1,0,68,80,19130,38,82,23,-40,74,2156,26,0,162,1,2,1,2,0,0,0,0,0,0,0,0,0,0,0,0,0,0,0,0,0,0,0,0,0,0,0,0,0,2,12.0,0.102706,replay
16584.19321,70,2,0,0,-1,-1,0,68,80,19122,39,82,34,-33,80,2175,228,3,320,0,1,0,1,0,0,443,2048,20,194,441,0,255,17,1,2,0,0,0,0,0,0,0,0,8889,8890,174,34,166,2,8.0,0.749065,replay
16584.71,70,2,-1,0,-1,0,0,68,80,19123,39,82,-25,-23,86,2211,231,3,44,0,1,0,1,0,0,451,2048,20,197,449,0,255,17,1,2,0,0,0,0,0,0,0,0,8889,8890,177,37,169,2,8.0,0.051231,replay
16585.23163,70,1,-1,0,-1,-1,0,68,80,19119,40,82,-16,-25,82,2211,231,3,44,0,1,0,1,0,0,451,2048,20,197,449,0,255,17,1,2,0,0,0,0,0,0,0,0,8889,8890,177,37,169,2,8.0,0.051231,replay
16585.75537,70,0,0,0,0,0,0,68,81,19127,40,81,-8,-22,82,2211,231,3,44,0,1,0,1,0,0,451,2048,20,197,449,0,255,17,1,2,0,0,0,0,0,0,0,0,8889,8890,177,37,169,2,8.0,0.051231,replay
16586.27541,70,0,-1,0,-1,-2,0,68,81,19123,41,81,-3,-14,86,2211,231,3,44,0,1,0,1,0,0,451,2048,20,197,449,0,255,17,1,2,0,0,0,0,0,0,0,0,8889,8890,177,37,169,2,8.0,0.051231,replay
16586.8042,70,0,-1,0,0,0,0,68,80,19119,41,81,-5,-18,81,2211,231,3,44,0,1,0,1,0,0,451,2048,20,197,449,0,255,17,1,2,0,0,0,0,0,0,0,0,8889,8890,177,37,169,2,8.0,0.051231,replay
16587.33509,70,0,-1,0,0,0,0,68,79,19127,42,81,-5,-10,81,2211,231,3,44,0,1,0,1,0,0,451,2048,20,197,449,0,255,17,1,2,0,0,0,0,0,0,0,0,8889,8890,177,37,169,2,8.0,0.051231,replay
16587.86571,70,0,0,0,-3,0,0,67,79,19115,42,81,-5,-7,81,2265,71,3,314,1,2,1,2,0,0,2,2048,20,37,27305,64,64,17,3,1,0,0,0,0,0,0,0,0,8889,8889,17,46,9,2,8.0,0.038723,replay
16588.39562,70,0,0,0,0,0,0,68,78,19119,43,81,-5,-4,80,2316,26,0,162,1,2,1,2,0,0,0,0,0,0,0,0,0,0,0,0,0,0,0,0,0,0,0,0,0,0,0,0,0,2,12.0,0.011571,replay
16588.91335,70,0,0,0,0,0,29,68,78,19122,44,81,-5,-5,80,2325,26,0,162,1,2,1,2,0,0,0,0,0,0,0,0,0,0,0,0,0,0,0,0,0,0,0,0,0,0,0,0,0,2,12.0,0.539233,replay
16589.45904,70,0,0,0,0,-1,60,68,77,19121,44,81,-6,-10,79,2334,26,0,162,1,2,1,2,0,0,0,0,0,0,0,0,0,0,0,0,0,0,0,0,0,0,0,0,0,0,0,0,0,2,12.0,0.409391,replay
16589.99014,60,0,0,0,0,0,96,68,77,19117,45,81,-2,-13,78,2334,26,0,162,1,2,1,2,0,0,0,0,0,0,0,0,0,0,0,0,0,0,0,0,0,0,0,0,0,0,0,0,0,2,12.0,0.409391,replay
16590.50576,60,0,0,0,0,0,126,68,77,19121,45,81,-2,-14,79,2363,26,0,162,1,2,1,2,0,0,0,0,0,0,0,0,0,0,0,0,0,0,0,0,0,0,0,0,0,0,0,0,0,2,12.0,1.02396,replay
16591.00652,70,0,0,0,0,0,157,68,79,19127,46,81,-2,-17,79,2377,26,0,162,1,2,1,2,0,0,0,0,0,0,0,0,0,0,0,0,0,0,0,0,0,0,0,0,0,0,0,0,0,2,12.0,0.102162,replay
16591.53737,70,0,0,0,0,1,173,68,81,19119,46,81,-2,-17,81,2377,26,0,162,1,2,1,2,0,0,0,0,0,0,0,0,0,0,0,0,0,0,0,0,0,0,0,0,0,0,0,0,0,2,12.0,0.102162,replay
16592.06827,70,0,0,0,0,0,177,68,83,19125,47,80,-7,-17,84,2399,26,0,162,1,2,1,2,0,0,0,0,0,0,0,0,0,0,0,0,0,0,0,0,0,0,0,0,0,0,0,0,0,2,12.0,3.3e-05,replay
16592.58389,70,0,0,0,0,0,177,68,82,19127,47,80,-8,-17,85,2403,74,3,320,0,1,0,1,0,0,545,2048,20,40,544,0,255,17,1,2,0,0,0,0,0,0,0,0,8889,8899,20,49,12,2,8.0,0.626506,replay
16593.11547,70,0,0,0,0,0,177,68,76,19119,48,80,-6,-16,79,2417,98,0,320,4,1,4,1,0,0,663,0,0,0,0,0,0,0,0,0,0,0,0,0,0,0,0,0,0,0,0,0,0,0,5.0,0.082032,replay
16593.63365,60,-4,0,0,-6,0,177,68,75,19114,48,80,-12,-15,76,2451,26,0,162,1,2,1,2,0,0,0,0,0,0,0,0,0,0,0,0,0,0,0,0,0,0,0,0,0,0,0,0,0,2,12.0,0.534679,replay
16594.15381,60,-2,0,0,0,0,177,68,74,19118,49,80,-26,-11,78,2495,26,0,162,1,2,1,2,0,0,0,0,0,0,0,0,0,0,0,0,0,0,0,0,0,0,0,0,0,0,0,0,0,2,12.0,0.918862,replay
16594.67458,60,-2,0,0,0,0,177,68,74,19117,49,80,-46,-7,75,2533,26,0,162,1,2,1,2,0,0,0,0,0,0,0,0,0,0,0,0,0,0,0,0,0,0,0,0,0,0,0,0,0,2,12.0,0.102344,replay
16595.21015,60,-2,0,0,-1,0,177,68,76,19116,50,80,15,-22,73,2533,26,0,162,1,2,1,2,0,0,0,0,0,0,0,0,0,0,0,0,0,0,0,0,0,0,0,0,0,0,0,0,0,2,12.0,0.102344,replay
16595.72378,70,-2,0,0,-1,0,177,68,75,19114,50,80,3,-20,75,2619,236,3,44,0,1,0,1,0,0,582,2048,20,202,580,0,255,17,1,2,0,0,0,0,0,0,0,0,8889,8890,182,42,174,2,8.0,0.102687,replay
16596.24053,60,0,0,0,0,0,177,68,75,19113,51,80,-11,-20,75,2638,98,0,320,3,1,3,1,0,0,701,0,0,0,0,0,0,0,0,0,0,0,0,0,0,0,0,0,0,0,0,0,0,0,5.0,0.014432,replay
16596.75658,60,1,-1,0,1,1,177,68,75,19119,51,80,-13,-19,75,2640,98,0,320,3,1,3,1,0,0,701,0,0,0,0,0,0,0,0,0,0,0,0,0,0,0,0,0,0,0,0,0,0,0,5.0,0.001501,replay
16597.27234,70,0,-1,0,0,0,177,68,77,19112,52,80,-7,-9,77,2640,98,0,320,3,1,3,1,0,0,701,0,0,0,0,0,0,0,0,0,0,0,0,0,0,0,0,0,0,0,0,0,0,0,5.0,0.001501,replay
16597.80236,70,0,0,0,-1,0,177,68,78,19119,52,80,-6,-4,79,2640,98,0,320,3,1,3,1,0,0,701,0,0,0,0,0,0,0,0,0,0,0,0,0,0,0,0,0,0,0,0,0,0,0,5.0,0.001501,replay
16598.34921,70,0,0,0,0,0,177,68,77,19120,53,80,-5,-3,78,2718,26,0,162,1,2,1,2,0,0,0,0,0,0,0,0,0,0,0,0,0,0,0,0,0,0,0,0,0,0,0,0,0,2,12.0,0.048155,replay
16598.87982,70,0,0,0,0,0,177,68,77,19130,53,80,-5,-2,78,2718,26,0,162,1,2,1,2,0,0,0,0,0,0,0,0,0,0,0,0,0,0,0,0,0,0,0,0,0,0,0,0,0,2,12.0,0.048155,replay
16599.41058,70,0,0,-1,0,0,177,68,83,19126,54,80,-5,-2,83,2774,236,3,44,0,1,0,1,0,0,625,2048,20,202,626,0,255,17,1,2,0,0,0,0,0,0,0,0,8889,8890,182,29,174,2,8.0,0.021307,replay
16599.91235,80,0,0,-1,0,0,177,68,95,19138,55,80,-5,-2,95,2778,233,3,320,0,1,0,1,0,0,630,2048,20,199,631,0,255,17,1,2,0,0,0,0,0,0,0,0,8889,8890,179,38,171,2,8.0,0.412137,replay
16600.44193,90,0,0,-1,0,0,177,68,106,19151,55,80,-6,-3,103,2778,233,3,320,0,1,0,1,0,0,630,2048,20,199,631,0,255,17,1,2,0,0,0,0,0,0,0,0,8889,8890,179,38,171,2,8.0,0.412137,replay
16600.97465,100,0,0,-1,0,0,177,68,115,19143,56,80,-7,-1,113,2785,26,0,162,1,2,1,2,0,0,0,0,0,0,0,0,0,0,0,0,0,0,0,0,0,0,0,0,0,0,0,0,0,2,12.0,0.795797,replay
16601.5057,100,0,0,0,0,0,177,68,117,19149,56,80,-6,-3,118,2790,70,3,162,1,2,1,2,0,0,11,2048,20,36,28997,64,64,17,3,1,0,0,0,0,0,0,0,0,8889,8889,16,3,8,2,8.0,0.958256,replay
16602.02232,90,0,0,2,0,0,177,68,108,19143,57,79,-5,-2,110,2795,26,0,162,1,2,1,2,0,0,0,0,0,0,0,0,0,0,0,0,0,0,0,0,0,0,0,0,0,0,0,0,0,2,12.0,0.167881,replay
16602.55406,80,0,0,2,0,0,177,68,92,19132,57,79,-7,-2,95,2795,26,0,162,1,2,1,2,0,0,0,0,0,0,0,0,0,0,0,0,0,0,0,0,0,0,0,0,0,0,0,0,0,2,12.0,0.167881,replay
16603.08483,70,0,0,1,0,0,177,68,85,19123,58,79,-7,-1,87,2898,234,3,44,0,1,0,1,0,0,670,2048,20,200,670,0,255,17,1,2,0,0,0,0,0,0,0,0,8889,8890,180,33,172,2,8.0,0.057623,replay
16603.61556,70,0,0,0,0,0,177,68,77,19117,58,79,-14,0,77,2898,234,3,44,0,1,0,1,0,0,670,2048,20,200,670,0,255,17,1,2,0,0,0,0,0,0,0,0,8889,8890,180,33,172,2,8.0,0.057623,replay
16604.16313,70,1,0,0,0,0,177,68,77,19116,59,79,-9,0,76,2898,234,3,44,0,1,0,1,0,0,670,2048,20,200,670,0,255,17,1,2,0,0,0,0,0,0,0,0,8889,8890,180,33,172,2,8.0,0.057623,replay
16604.69573,70,1,0,0,0,0,177,68,78,19124,59,79,-11,0,76,2919,26,0,162,1,2,1,2,0,0,0,0,0,0,0,0,0,0,0,0,0,0,0,0,0,0,0,0,0,0,0,0,0,2,12.0,1.171076,replay
16605.2404,70,0,0,0,-8,0,177,68,81,19123,60,79,0,-2,80,2919,26,0,162,1,2,1,2,0,0,0,0,0,0,0,0,0,0,0,0,0,0,0,0,0,0,0,0,0,0,0,0,0,2,12.0,1.171076,replay
16605.80319,70,-3,0,0,0,0,177,69,80,19121,60,78,-9,5,80,2919,26,0,162,1,2,1,2,0,0,0,0,0,0,0,0,0,0,0,0,0,0,0,0,0,0,0,0,0,0,0,0,0,2,12.0,1.171076,replay
16606.33253,70,-2,0,0,-1,0,177,69,80,19110,61,78,-24,7,80,2919,26,0,162,1,2,1,2,0,0,0,0,0,0,0,0,0,0,0,0,0,0,0,0,0,0,0,0,0,0,0,0,0,2,12.0,1.171076,replay
16606.85026,70,-2,0,0,-1,0,177,68,79,19114,61,78,-43,11,77,2994,26,0,60,1,0,1,0,0,0,0,0,0,0,0,0,0,0,0,0,0,0,0,0,0,0,0,0,0,0,0,0,0,2,12.0,0.010125,replay
16607.38148,70,-2,0,0,-1,-1,177,68,79,19121,62,78,-33,2,78,2996,98,0,320,0,1,0,1,0,0,824,0,0,0,0,0,0,0,0,0,0,0,0,0,0,0,0,0,0,0,0,0,0,0,5.0,0.509269,replay
16607.91306,70,-1,0,0,0,0,177,67,79,19117,62,78,-14,1,80,2996,98,0,320,0,1,0,1,0,0,824,0,0,0,0,0,0,0,0,0,0,0,0,0,0,0,0,0,0,0,0,0,0,0,5.0,0.509269,replay
16608.44412,70,-1,0,0,-8,0,177,67,80,19111,63,78,-13,2,80,2996,98,0,320,0,1,0,1,0,0,824,0,0,0,0,0,0,0,0,0,0,0,0,0,0,0,0,0,0,0,0,0,0,0,5.0,0.509269,replay
16608.97488,70,-6,0,0,-7,0,177,67,81,19109,64,78,2,2,81,3035,26,0,162,1,2,1,2,0,0,0,0,0,0,0,0,0,0,0,0,0,0,0,0,0,0,0,0,0,0,0,0,0,2,12.0,0.019469,replay
16609.49146,70,-9,0,0,-5,0,177,67,84,19096,64,78,47,-4,78,3043,26,0,162,1,2,1,2,0,0,0,0,0,0,0,0,0,0,0,0,0,0,0,0,0,0,0,0,0,0,0,0,0,2,12.0,0.016286,replay
16610.00437,70,-9,0,0,-4,0,177,68,88,19103,65,78,-4,10,87,3055,26,0,162,1,2,1,2,0,0,0,0,0,0,0,0,0,0,0,0,0,0,0,0,0,0,0,0,0,0,0,0,0,2,12.0,0.819179,replay
16610.52208,70,-9,0,0,-4,0,177,68,88,19103,65,78,50,5,90,3088,86,2,44,1,0,1,0,0,0,276,2048,20,52,38176,64,128,6,2,4,57564,53,729880180,0,32,2,64240,1,0,0,0,0,0,2,8.0,0.03408,replay
16611.05321,70,-10,0,0,-4,0,177,68,63,19095,66,78,50,5,90,3094,26,0,162,1,2,1,2,0,0,0,0,0,0,0,0,0,0,0,0,0,0,0,0,0,0,0,0,0,0,0,0,0,2,12.0,0.102561,replay
16611.59991,-10,4,4,28,6,-75,158,68,10,19088,66,78,50,5,90,3099,26,0,162,1,2,1,2,0,0,0,0,0,0,0,0,0,0,0,0,0,0,0,0,0,0,0,0,0,0,0,0,0,2,12.0,0.101631,replay
16612.11802,-10,4,4,28,6,-75,158,68,10,19088,66,78,50,5,90,3101,26,0,162,1,2,1,2,0,0,0,0,0,0,0,0,0,0,0,0,0,0,0,0,0,0,0,0,0,0,0,0,0,2,12.0,0.102927,replay
16612.62599,-10,4,4,28,6,-75,158,68,10,19088,66,78,50,5,90,3118,26,0,162,1,2,1,2,0,0,0,0,0,0,0,0,0,0,0,0,0,0,0,0,0,0,0,0,0,0,0,0,0,2,12.0,0.92243,replay
16613.14764,-10,4,4,28,6,-75,158,68,10,19088,66,78,50,5,90,3136,26,0,162,1,2,1,2,0,0,0,0,0,0,0,0,0,0,0,0,0,0,0,0,0,0,0,0,0,0,0,0,0,2,12.0,0.203296,replay
16613.66446,-10,4,4,28,6,-75,158,68,10,19088,66,78,50,5,90,3136,26,0,162,1,2,1,2,0,0,0,0,0,0,0,0,0,0,0,0,0,0,0,0,0,0,0,0,0,0,0,0,0,2,12.0,0.203296,replay
16614.19336,-10,4,4,28,6,-75,158,68,10,19088,66,78,50,5,90,3208,77,3,314,1,0,1,0,0,0,289,2048,20,43,59796,0,128,17,2,1,0,0,0,0,0,0,0,0,8889,8889,23,1,15,2,8.0,0.006033,replay
16614.71104,-10,4,4,28,6,-75,158,68,10,19088,66,78,50,5,90,3225,86,2,314,1,0,1,0,0,0,291,2048,20,52,38181,64,128,6,2,4,57564,53,729880180,0,32,2,64240,1,0,0,0,0,0,2,8.0,0.035115,replay
16615.23823,-10,4,4,28,6,-75,158,68,10,19088,66,78,50,5,90,3324,26,0,314,1,2,1,2,0,0,0,0,0,0,0,0,0,0,0,0,0,0,0,0,0,0,0,0,0,0,0,0,0,2,12.0,1.5e-05,replay
16615.73889,-10,4,4,28,6,-75,158,68,10,19088,66,78,50,5,90,3324,26,0,314,1,2,1,2,0,0,0,0,0,0,0,0,0,0,0,0,0,0,0,0,0,0,0,0,0,0,0,0,0,2,12.0,1.5e-05,replay
16616.23987,-10,4,4,28,6,-75,158,68,10,19088,66,78,50,5,90,3324,26,0,314,1,2,1,2,0,0,0,0,0,0,0,0,0,0,0,0,0,0,0,0,0,0,0,0,0,0,0,0,0,2,12.0,1.5e-05,replay
16616.75561,-10,4,4,28,6,-75,158,68,10,19088,66,78,50,5,90,3324,26,0,314,1,2,1,2,0,0,0,0,0,0,0,0,0,0,0,0,0,0,0,0,0,0,0,0,0,0,0,0,0,2,12.0,1.5e-05,replay
16617.27251,-10,4,4,28,6,-75,158,68,10,19088,66,78,50,5,90,3324,26,0,314,1,2,1,2,0,0,0,0,0,0,0,0,0,0,0,0,0,0,0,0,0,0,0,0,0,0,0,0,0,2,12.0,1.5e-05,replay
16617.80306,-10,4,4,28,6,-75,158,68,10,19088,66,78,50,5,90,3324,26,0,314,1,2,1,2,0,0,0,0,0,0,0,0,0,0,0,0,0,0,0,0,0,0,0,0,0,0,0,0,0,2,12.0,1.5e-05,replay
16618.31868,-10,4,4,28,6,-75,158,68,10,19088,66,78,50,5,90,3324,26,0,314,1,2,1,2,0,0,0,0,0,0,0,0,0,0,0,0,0,0,0,0,0,0,0,0,0,0,0,0,0,2,12.0,1.5e-05,replay
16685.29992,80,0,0,0,0,0,-1,63,83,19102,7,73,-2,5,85,1331,26,0,162,1,2,1,2,0,0,0,0,0,0,0,0,0,0,0,0,0,0,0,0,0,0,0,0,0,0,0,0,0,2,12.0,0.001399,replay
16685.81557,80,0,0,0,0,0,-1,64,83,19116,8,73,-1,4,85,1331,26,0,162,1,2,1,2,0,0,0,0,0,0,0,0,0,0,0,0,0,0,0,0,0,0,0,0,0,0,0,0,0,2,12.0,0.001399,replay
16686.34714,80,0,0,0,0,0,-1,64,83,19113,8,73,-5,6,85,1331,26,0,162,1,2,1,2,0,0,0,0,0,0,0,0,0,0,0,0,0,0,0,0,0,0,0,0,0,0,0,0,0,2,12.0,0.001399,replay
16686.86476,80,0,0,0,0,-1,-1,64,82,19111,9,73,-3,4,85,1355,26,0,162,1,2,1,2,0,0,0,0,0,0,0,0,0,0,0,0,0,0,0,0,0,0,0,0,0,0,0,0,0,2,12.0,0.102751,replay
16687.39359,80,0,0,0,0,0,-1,64,82,19108,9,73,-4,6,84,1403,26,0,162,1,2,1,2,0,0,0,0,0,0,0,0,0,0,0,0,0,0,0,0,0,0,0,0,0,0,0,0,0,2,12.0,2.3e-05,replay
16687.92819,80,0,0,0,0,0,0,64,81,19111,10,73,-4,3,83,1403,26,0,162,1,2,1,2,0,0,0,0,0,0,0,0,0,0,0,0,0,0,0,0,0,0,0,0,0,0,0,0,0,2,12.0,2.3e-05,replay
16688.45823,80,0,0,0,0,0,0,64,81,19113,10,73,-5,6,83,1429,26,0,162,1,2,1,2,0,0,0,0,0,0,0,0,0,0,0,0,0,0,0,0,0,0,0,0,0,0,0,0,0,2,12.0,1.126638,replay
16689.00673,80,0,0,0,0,0,-1,64,81,19114,11,73,-8,6,83,1440,26,0,162,1,2,1,2,0,0,0,0,0,0,0,0,0,0,0,0,0,0,0,0,0,0,0,0,0,0,0,0,0,2,12.0,0.102404,replay
16689.53631,80,0,0,0,0,0,-1,64,81,19111,11,73,-8,9,83,1452,26,0,162,1,2,1,2,0,0,0,0,0,0,0,0,0,0,0,0,0,0,0,0,0,0,0,0,0,0,0,0,0,2,12.0,0.92163,replay
16690.06692,80,0,0,0,0,0,-1,64,82,19110,12,73,-8,8,84,1454,26,0,162,1,2,1,2,0,0,0,0,0,0,0,0,0,0,0,0,0,0,0,0,0,0,0,0,0,0,0,0,0,2,12.0,0.100357,replay
16690.58569,80,0,0,0,0,0,0,64,82,19116,12,73,-8,9,85,1471,26,0,162,1,2,1,2,0,0,0,0,0,0,0,0,0,0,0,0,0,0,0,0,0,0,0,0,0,0,0,0,0,2,12.0,0.001342,replay
16691.11453,80,0,0,0,0,0,0,64,82,19118,13,73,-7,13,85,1496,26,0,162,1,2,1,2,0,0,0,0,0,0,0,0,0,0,0,0,0,0,0,0,0,0,0,0,0,0,0,0,0,2,12.0,2.3e-05,replay
16691.62725,80,0,0,0,0,0,0,65,82,19117,13,73,-7,14,85,1502,230,3,320,0,1,0,1,0,0,142,2048,20,196,143,0,255,17,1,2,0,0,0,0,0,0,0,0,8889,8890,176,11,168,2,8.0,0.002436,replay
16692.12908,80,4,0,0,-6,0,-1,65,83,19113,14,73,-10,17,85,1530,26,0,162,1,2,1,2,0,0,0,0,0,0,0,0,0,0,0,0,0,0,0,0,0,0,0,0,0,0,0,0,0,2,12.0,0.001398,replay
16692.64783,80,2,0,0,-1,0,-1,64,83,19113,14,73,-39,14,85,1542,26,0,162,1,2,1,2,0,0,0,0,0,0,0,0,0,0,0,0,0,0,0,0,0,0,0,0,0,0,0,0,0,2,12.0,0.001979,replay
16693.16345,80,2,0,0,-1,0,-1,64,83,19110,15,73,39,7,84,1542,26,0,162,1,2,1,2,0,0,0,0,0,0,0,0,0,0,0,0,0,0,0,0,0,0,0,0,0,0,0,0,0,2,12.0,0.001979,replay
16693.70928,80,2,0,0,-1,-1,-1,64,83,19115,15,73,29,15,82,1573,26,0,162,1,2,1,2,0,0,0,0,0,0,0,0,0,0,0,0,0,0,0,0,0,0,0,0,0,0,0,0,0,2,12.0,0.102149,replay
16694.22511,80,1,-1,0,0,-1,-1,64,83,19116,16,73,10,10,84,1583,26,0,162,1,2,1,2,0,0,0,0,0,0,0,0,0,0,0,0,0,0,0,0,0,0,0,0,0,0,0,0,0,2,12.0,0.819109,replay
16694.73806,80,0,-1,0,0,2,-1,64,82,19110,16,73,2,6,84,1604,233,3,44,0,1,0,1,0,0,182,2048,20,199,182,0,255,17,1,2,0,0,0,0,0,0,0,0,8889,8890,179,7,171,2,8.0,0.00499,replay
16695.2551,80,0,0,0,0,-2,-1,64,83,19115,17,73,-2,2,85,1604,233,3,44,0,1,0,1,0,0,182,2048,20,199,182,0,255,17,1,2,0,0,0,0,0,0,0,0,8889,8890,179,7,171,2,8.0,0.00499,replay
16695.75914,80,0,0,0,0,0,-1,64,82,19112,17,73,-1,7,84,1623,26,0,162,1,2,1,2,0,0,0,0,0,0,0,0,0,0,0,0,0,0,0,0,0,0,0,0,0,0,0,0,0,2,12.0,1.019244,replay
16696.26405,80,0,0,0,0,0,-1,64,81,19112,18,73,-1,7,83,1636,26,0,162,1,2,1,2,0,0,0,0,0,0,0,0,0,0,0,0,0,0,0,0,0,0,0,0,0,0,0,0,0,2,12.0,0.001385,replay
16696.78116,70,0,0,0,0,1,-1,65,80,19114,18,73,0,6,82,1636,26,0,162,1,2,1,2,0,0,0,0,0,0,0,0,0,0,0,0,0,0,0,0,0,0,0,0,0,0,0,0,0,2,12.0,0.001385,replay
16697.30035,70,0,0,0,0,0,-1,65,80,19111,19,73,-3,7,82,1653,26,0,162,1,2,1,2,0,0,0,0,0,0,0,0,0,0,0,0,0,0,0,0,0,0,0,0,0,0,0,0,0,2,12.0,0.102428,replay
16697.8311,80,0,0,0,0,0,-1,64,82,19118,19,73,-3,10,83,1662,26,0,162,1,2,1,2,0,0,0,0,0,0,0,0,0,0,0,0,0,0,0,0,0,0,0,0,0,0,0,0,0,2,12.0,0.102291,replay
16698.33491,80,4,0,0,-1,0,-1,64,82,19118,20,73,-12,12,84,1692,26,0,162,1,2,1,2,0,0,0,0,0,0,0,0,0,0,0,0,0,0,0,0,0,0,0,0,0,0,0,0,0,2,12.0,2.7e-05,replay
16698.86569,80,2,0,0,-1,0,0,64,82,19116,21,73,-39,25,78,1694,231,3,44,0,1,0,1,0,0,226,2048,20,197,226,0,255,17,1,2,0,0,0,0,0,0,0,0,8889,8890,177,14,169,2,8.0,0.043819,replay
16699.38131,80,2,0,0,-1,-1,-1,64,81,19119,21,73,-34,-10,84,1694,231,3,44,0,1,0,1,0,0,226,2048,20,197,226,0,255,17,1,2,0,0,0,0,0,0,0,0,8889,8890,177,14,169,2,8.0,0.043819,replay
16699.91092,80,2,-1,0,0,-1,-1,65,80,19114,22,73,-17,-18,81,1749,26,0,162,1,2,1,2,0,0,0,0,0,0,0,0,0,0,0,0,0,0,0,0,0,0,0,0,0,0,0,0,0,2,12.0,0.001366,replay
16700.42798,70,1,-1,0,0,-1,-1,65,80,19107,22,73,-2,-11,81,1749,26,0,162,1,2,1,2,0,0,0,0,0,0,0,0,0,0,0,0,0,0,0,0,0,0,0,0,0,0,0,0,0,2,12.0,0.001366,replay
16700.95968,70,0,0,0,0,0,-1,65,79,19115,23,73,-1,-11,81,1783,26,0,162,1,2,1,2,0,0,0,0,0,0,0,0,0,0,0,0,0,0,0,0,0,0,0,0,0,0,0,0,0,2,12.0,0.101828,replay
16701.48969,80,0,-1,0,0,-1,-1,65,80,19114,23,73,2,-10,81,1796,26,0,162,1,2,1,2,0,0,0,0,0,0,0,0,0,0,0,0,0,0,0,0,0,0,0,0,0,0,0,0,0,2,12.0,0.204527,replay
16702.01728,70,0,-1,0,0,-1,-1,65,80,19119,24,73,0,-7,82,1819,26,0,162,1,2,1,2,0,0,0,0,0,0,0,0,0,0,0,0,0,0,0,0,0,0,0,0,0,0,0,0,0,2,12.0,2.5e-05,replay
16702.53499,70,0,-1,0,0,0,-1,65,80,19122,24,73,0,-7,82,1821,86,2,44,1,0,1,0,0,0,160,2048,20,52,4170,64,128,6,2,3,58358,53,930133157,0,32,2,64240,1,0,0,0,0,0,2,8.0,0.025833,replay
16703.0546,70,0,0,0,0,0,-1,65,80,19117,25,73,0,-6,82,1821,86,2,44,1,0,1,0,0,0,160,2048,20,52,4170,64,128,6,2,3,58358,53,930133157,0,32,2,64240,1,0,0,0,0,0,2,8.0,0.025833,replay
16703.58365,70,0,0,0,0,0,-1,65,80,19121,25,73,0,-8,82,1868,26,0,162,1,2,1,2,0,0,0,0,0,0,0,0,0,0,0,0,0,0,0,0,0,0,0,0,0,0,0,0,0,2,12.0,0.001102,replay
16704.10127,70,1,0,0,-8,0,-1,65,82,19116,26,73,0,-11,83,1868,26,0,162,1,2,1,2,0,0,0,0,0,0,0,0,0,0,0,0,0,0,0,0,0,0,0,0,0,0,0,0,0,2,12.0,0.001102,replay
16704.63085,80,3,0,0,1,-1,-1,65,82,19123,26,73,15,-22,81,1907,26,0,162,1,2,1,2,0,0,0,0,0,0,0,0,0,0,0,0,0,0,0,0,0,0,0,0,0,0,0,0,0,2,12.0,0.102429,replay
16705.14653,80,2,0,0,-1,0,-1,66,81,19116,27,73,6,-35,83,1917,26,0,162,1,2,1,2,0,0,0,0,0,0,0,0,0,0,0,0,0,0,0,0,0,0,0,0,0,0,0,0,0,2,12.0,0.001958,replay
16705.67745,80,2,0,0,-1,0,-1,66,81,19117,27,73,-26,-17,84,1953,98,0,320,4,1,4,1,0,0,458,0,0,0,0,0,0,0,0,0,0,0,0,0,0,0,0,0,0,0,0,0,0,0,5.0,0.001802,replay
16706.19452,80,2,0,0,-1,-1,-1,66,80,19114,28,73,-11,-20,82,1959,228,3,44,0,1,0,1,0,0,313,2048,20,194,312,0,255,17,1,2,0,0,0,0,0,0,0,0,8889,8890,174,23,166,2,8.0,1.6e-05,replay
16706.71117,70,1,-1,0,1,-1,-1,66,80,19117,28,73,2,-13,82,1959,228,3,44,0,1,0,1,0,0,313,2048,20,194,312,0,255,17,1,2,0,0,0,0,0,0,0,0,8889,8890,174,23,166,2,8.0,1.6e-05,replay
16707.2241,70,0,0,0,0,0,-1,66,80,19119,29,73,3,-11,82,2022,26,0,162,1,2,1,2,0,0,0,0,0,0,0,0,0,0,0,0,0,0,0,0,0,0,0,0,0,0,0,0,0,2,12.0,0.102614,replay
16707.73975,70,0,0,0,0,-4,0,65,80,19111,29,73,6,-16,80,2022,26,0,162,1,2,1,2,0,0,0,0,0,0,0,0,0,0,0,0,0,0,0,0,0,0,0,0,0,0,0,0,0,2,12.0,0.102614,replay
16708.24191,70,0,-1,0,0,0,-1,65,80,19113,30,73,2,-11,82,2039,26,0,162,1,2,1,2,0,0,0,0,0,0,0,0,0,0,0,0,0,0,0,0,0,0,0,0,0,0,0,0,0,2,12.0,0.101244,replay
16708.75606,70,0,-1,0,0,0,-1,65,79,19122,30,73,1,-7,82,2051,26,0,162,1,2,1,2,0,0,0,0,0,0,0,0,0,0,0,0,0,0,0,0,0,0,0,0,0,0,0,0,0,2,12.0,0.716723,replay
16709.27066,70,0,0,0,0,1,-1,65,79,19125,31,73,-1,-5,82,2067,26,0,162,1,2,1,2,0,0,0,0,0,0,0,0,0,0,0,0,0,0,0,0,0,0,0,0,0,0,0,0,0,2,12.0,3.2e-05,replay
16709.7737,70,0,0,0,0,0,22,65,80,19126,31,73,-1,-5,82,2078,230,3,44,0,1,0,1,0,0,357,2048,20,196,356,0,255,17,1,2,0,0,0,0,0,0,0,0,8889,8890,176,30,168,2,8.0,0.051807,replay
16710.30274,70,0,0,0,0,0,59,65,79,19123,32,73,0,-8,82,2078,230,3,44,0,1,0,1,0,0,357,2048,20,196,356,0,255,17,1,2,0,0,0,0,0,0,0,0,8889,8890,176,30,168,2,8.0,0.051807,replay
16710.82156,70,0,0,0,0,0,89,65,79,19118,32,73,1,-13,82,2141,26,0,162,1,2,1,2,0,0,0,0,0,0,0,0,0,0,0,0,0,0,0,0,0,0,0,0,0,0,0,0,0,2,12.0,0.10189,replay
16711.34734,70,0,0,0,0,0,131,65,81,19121,33,73,3,-18,82,2141,26,0,162,1,2,1,2,0,0,0,0,0,0,0,0,0,0,0,0,0,0,0,0,0,0,0,0,0,0,0,0,0,2,12.0,0.10189,replay
16711.86608,80,0,0,0,0,1,156,66,82,19120,34,73,3,-25,81,2162,26,0,162,1,2,1,2,0,0,0,0,0,0,0,0,0,0,0,0,0,0,0,0,0,0,0,0,0,0,0,0,0,2,12.0,0.001349,replay
16712.38581,80,0,0,0,0,1,172,66,82,19120,34,73,-1,-26,83,2180,26,0,162,1,2,1,2,0,0,0,0,0,0,0,0,0,0,0,0,0,0,0,0,0,0,0,0,0,0,0,0,0,2,12.0,0.001827,replay
16712.89659,80,0,0,0,0,0,177,65,84,19125,35,73,0,-23,85,2184,26,0,162,1,2,1,2,0,0,0,0,0,0,0,0,0,0,0,0,0,0,0,0,0,0,0,0,0,0,0,0,0,2,12.0,0.10333,replay
16713.39728,80,0,0,0,0,0,177,65,84,19126,35,73,-6,-21,85,2200,26,0,162,1,2,1,2,0,0,0,0,0,0,0,0,0,0,0,0,0,0,0,0,0,0,0,0,0,0,0,0,0,2,12.0,2.5e-05,replay
16713.91305,80,0,0,0,0,0,177,66,84,19126,36,73,-8,-16,86,2213,26,0,162,1,2,1,2,0,0,0,0,0,0,0,0,0,0,0,0,0,0,0,0,0,0,0,0,0,0,0,0,0,2,12.0,0.001987,replay
16714.42768,80,-3,0,0,-8,0,177,66,85,19122,36,73,-10,-14,86,2244,26,0,162,1,2,1,2,0,0,0,0,0,0,0,0,0,0,0,0,0,0,0,0,0,0,0,0,0,0,0,0,0,2,12.0,0.104392,replay
16714.9433,80,-2,0,0,0,0,177,66,83,19124,37,73,-29,-13,83,2244,26,0,162,1,2,1,2,0,0,0,0,0,0,0,0,0,0,0,0,0,0,0,0,0,0,0,0,0,0,0,0,0,2,12.0,0.104392,replay
16715.47487,80,-2,0,0,0,0,177,66,82,19128,37,73,19,-14,86,2253,26,0,162,1,2,1,2,0,0,0,0,0,0,0,0,0,0,0,0,0,0,0,0,0,0,0,0,0,0,0,0,0,2,12.0,0.001958,replay
16715.99174,80,-2,0,0,-1,0,177,66,82,19122,38,73,8,-18,82,2253,26,0,162,1,2,1,2,0,0,0,0,0,0,0,0,0,0,0,0,0,0,0,0,0,0,0,0,0,0,0,0,0,2,12.0,0.001958,replay
16716.50846,80,-2,0,0,0,0,177,66,82,19122,38,73,0,-13,83,2273,98,0,320,3,1,3,1,0,0,563,0,0,0,0,0,0,0,0,0,0,0,0,0,0,0,0,0,0,0,0,0,0,0,5.0,0.015736,replay
16717.0222,80,0,0,0,1,2,177,66,82,19126,39,73,-4,-13,84,2297,26,0,60,1,0,1,0,0,0,0,0,0,0,0,0,0,0,0,0,0,0,0,0,0,0,0,0,0,0,0,0,0,2,12.0,0.028499,replay
16717.53683,80,0,-2,0,0,8,177,66,83,19129,39,73,-9,-16,82,2297,26,0,60,1,0,1,0,0,0,0,0,0,0,0,0,0,0,0,0,0,0,0,0,0,0,0,0,0,0,0,0,0,2,12.0,0.028499,replay
16718.03794,80,0,-7,0,0,5,176,66,83,19131,40,73,-10,9,84,2340,26,0,162,1,2,1,2,0,0,0,0,0,0,0,0,0,0,0,0,0,0,0,0,0,0,0,0,0,0,0,0,0,2,12.0,0.024567,replay
16718.55359,80,0,-9,0,0,3,177,66,83,19133,40,73,-25,42,81,2350,237,3,320,0,1,0,1,0,0,460,2048,20,203,461,0,255,17,1,2,0,0,0,0,0,0,0,0,8889,8890,183,25,175,2,8.0,0.002453,replay
16719.0833,80,0,-9,0,0,3,176,66,83,19150,41,73,-25,42,81,2369,26,0,162,1,2,1,2,0,0,0,0,0,0,0,0,0,0,0,0,0,0,0,0,0,0,0,0,0,0,0,0,0,2,12.0,0.895453,replay
16719.59837,90,1,-1,14,7,101,178,66,290,19094,41,73,-25,42,81,2374,26,0,162,1,2,1,2,0,0,0,0,0,0,0,0,0,0,0,0,0,0,0,0,0,0,0,0,0,0,0,0,0,2,12.0,0.103125,replay
16720.11714,90,1,-1,14,7,101,178,66,290,19094,41,73,-25,42,81,2377,26,0,162,1,2,1,2,0,0,0,0,0,0,0,0,0,0,0,0,0,0,0,0,0,0,0,0,0,0,0,0,0,2,12.0,0.818605,replay
16720.67907,90,1,-1,14,7,101,178,66,290,19094,41,73,-25,42,81,2393,236,3,44,0,1,0,1,0,0,487,2048,20,202,488,0,255,17,1,2,0,0,0,0,0,0,0,0,8889,8890,182,18,174,2,8.0,0.007524,replay
16721.20993,90,1,-1,14,7,101,178,66,290,19094,41,73,-25,42,81,2399,26,0,162,1,2,1,2,0,0,0,0,0,0,0,0,0,0,0,0,0,0,0,0,0,0,0,0,0,0,0,0,0,2,12.0,0.504706,replay
16721.73054,90,1,-1,14,7,101,178,66,290,19094,41,73,-25,42,81,2399,26,0,162,1,2,1,2,0,0,0,0,0,0,0,0,0,0,0,0,0,0,0,0,0,0,0,0,0,0,0,0,0,2,12.0,0.504706,replay
16722.25514,90,1,-1,14,7,101,178,66,290,19094,41,73,-25,42,81,2416,26,0,162,1,2,1,2,0,0,0,0,0,0,0,0,0,0,0,0,0,0,0,0,0,0,0,0,0,0,0,0,0,2,12.0,0.819941,replay
16722.77306,90,1,-1,14,7,101,178,66,290,19094,41,73,-25,42,81,2570,26,0,314,1,2,1,2,0,0,0,0,0,0,0,0,0,0,0,0,0,0,0,0,0,0,0,0,0,0,0,0,0,2,12.0,1.7e-05,replay
16723.30362,90,1,-1,14,7,101,178,66,290,19094,41,73,-25,42,81,2630,26,0,314,1,2,1,2,0,0,0,0,0,0,0,0,0,0,0,0,0,0,0,0,0,0,0,0,0,0,0,0,0,2,12.0,0.001512,replay
16723.82226,90,1,-1,14,7,101,178,66,290,19094,41,73,-25,42,81,2630,26,0,314,1,2,1,2,0,0,0,0,0,0,0,0,0,0,0,0,0,0,0,0,0,0,0,0,0,0,0,0,0,2,12.0,0.001512,replay
16724.34682,90,1,-1,14,7,101,178,66,290,19094,41,73,-25,42,81,2630,26,0,314,1,2,1,2,0,0,0,0,0,0,0,0,0,0,0,0,0,0,0,0,0,0,0,0,0,0,0,0,0,2,12.0,0.001512,replay
16724.8649,90,1,-1,14,7,101,178,66,290,19094,41,73,-25,42,81,2630,26,0,314,1,2,1,2,0,0,0,0,0,0,0,0,0,0,0,0,0,0,0,0,0,0,0,0,0,0,0,0,0,2,12.0,0.001512,replay
16725.38554,90,1,-1,14,7,101,178,66,290,19094,41,73,-25,42,81,2711,30,0,314,1,2,1,2,0,0,218,0,0,0,0,0,0,0,0,0,0,0,0,0,0,0,0,0,0,0,0,0,0,0,11.0,0.004457,replay
16725.9132,90,1,-1,14,7,101,178,66,290,19094,41,73,-25,42,81,2726,30,0,314,1,2,1,2,0,0,218,0,0,0,0,0,0,0,0,0,0,0,0,0,0,0,0,0,0,0,0,0,0,0,11.0,0.003913,replay
16726.4441,90,1,-1,14,7,101,178,66,290,19094,41,73,-25,42,81,2726,30,0,314,1,2,1,2,0,0,218,0,0,0,0,0,0,0,0,0,0,0,0,0,0,0,0,0,0,0,0,0,0,0,11.0,0.003913,replay
16803.19905,80,0,0,0,0,0,0,65,87,19173,7,67,0,8,89,881,26,0,162,1,2,1,2,0,0,0,0,0,0,0,0,0,0,0,0,0,0,0,0,0,0,0,0,0,0,0,0,0,2,12.0,0.10245,replay
16803.71687,80,0,0,0,0,0,0,65,84,19170,7,67,1,8,88,881,26,0,162,1,2,1,2,0,0,0,0,0,0,0,0,0,0,0,0,0,0,0,0,0,0,0,0,0,0,0,0,0,2,12.0,0.10245,replay
16804.23726,80,0,0,0,0,0,0,65,82,19163,8,67,0,7,86,914,26,0,162,1,2,1,2,0,0,0,0,0,0,0,0,0,0,0,0,0,0,0,0,0,0,0,0,0,0,0,0,0,2,12.0,0.101998,replay
16804.75717,80,0,0,0,0,0,0,66,83,19162,8,67,0,8,85,914,26,0,162,1,2,1,2,0,0,0,0,0,0,0,0,0,0,0,0,0,0,0,0,0,0,0,0,0,0,0,0,0,2,12.0,0.101998,replay
16805.28879,80,0,0,0,0,0,0,66,81,19167,9,67,-1,9,85,943,226,3,320,0,1,0,1,0,0,90,2048,20,192,91,0,255,17,1,2,0,0,0,0,0,0,0,0,8889,8890,172,24,164,2,8.0,0.160298,replay
16805.81654,80,0,0,0,0,0,0,66,81,19175,9,67,0,9,84,1005,86,2,44,1,0,1,0,0,0,113,2048,20,52,4211,64,128,6,2,3,62420,53,1935033011,0,32,2,64240,1,0,0,0,0,0,2,8.0,0.002073,replay
16806.33319,80,0,0,0,0,0,0,66,82,19169,10,67,1,9,84,1016,26,0,162,1,2,1,2,0,0,0,0,0,0,0,0,0,0,0,0,0,0,0,0,0,0,0,0,0,0,0,0,0,2,12.0,0.00123,replay
16806.8508,80,0,-1,0,0,-1,0,65,82,19166,10,67,1,10,84,1025,26,0,162,1,2,1,2,0,0,0,0,0,0,0,0,0,0,0,0,0,0,0,0,0,0,0,0,0,0,0,0,0,2,12.0,0.103235,replay
16807.41144,80,0,0,0,0,0,0,65,81,19169,11,67,2,9,84,1025,26,0,162,1,2,1,2,0,0,0,0,0,0,0,0,0,0,0,0,0,0,0,0,0,0,0,0,0,0,0,0,0,2,12.0,0.103235,replay
16807.94017,80,0,0,0,0,0,0,65,80,19171,11,67,1,5,84,1074,26,0,162,1,2,1,2,0,0,0,0,0,0,0,0,0,0,0,0,0,0,0,0,0,0,0,0,0,0,0,0,0,2,12.0,0.001976,replay
16808.45911,80,0,0,0,0,0,0,65,80,19177,12,67,2,6,84,1090,26,0,162,1,2,1,2,0,0,0,0,0,0,0,0,0,0,0,0,0,0,0,0,0,0,0,0,0,0,0,0,0,2,12.0,0.10115,replay
16808.98872,80,0,0,0,0,0,0,66,81,19176,12,67,3,9,83,1097,26,0,162,1,2,1,2,0,0,0,0,0,0,0,0,0,0,0,0,0,0,0,0,0,0,0,0,0,0,0,0,0,2,12.0,0.103684,replay
16809.51959,80,0,0,0,0,0,0,66,82,19174,13,67,3,13,84,1123,26,0,162,1,2,1,2,0,0,0,0,0,0,0,0,0,0,0,0,0,0,0,0,0,0,0,0,0,0,0,0,0,2,12.0,2.7e-05,replay
16810.03319,80,0,0,0,0,0,0,66,83,19173,13,67,4,13,85,1137,26,0,162,1,2,1,2,0,0,0,0,0,0,0,0,0,0,0,0,0,0,0,0,0,0,0,0,0,0,0,0,0,2,12.0,0.000564,replay
16810.54983,80,0,0,0,0,0,0,66,84,19167,14,67,3,14,86,1144,26,0,162,1,2,1,2,0,0,0,0,0,0,0,0,0,0,0,0,0,0,0,0,0,0,0,0,0,0,0,0,0,2,12.0,0.102134,replay
16811.06767,80,0,0,0,0,0,0,66,84,19169,14,67,5,15,86,1146,26,0,162,1,2,1,2,0,0,0,0,0,0,0,0,0,0,0,0,0,0,0,0,0,0,0,0,0,0,0,0,0,2,12.0,0.099322,replay
16811.58346,80,0,0,0,0,0,0,66,83,19167,15,67,7,18,85,1162,26,0,162,1,2,1,2,0,0,0,0,0,0,0,0,0,0,0,0,0,0,0,0,0,0,0,0,0,0,0,0,0,2,12.0,0.103956,replay
16812.09884,80,0,0,0,-8,1,0,66,83,19165,15,67,8,18,85,1162,26,0,162,1,2,1,2,0,0,0,0,0,0,0,0,0,0,0,0,0,0,0,0,0,0,0,0,0,0,0,0,0,2,12.0,0.103956,replay
16812.62842,80,4,0,0,1,0,0,65,83,19172,16,67,-7,16,87,1172,26,0,162,1,2,1,2,0,0,0,0,0,0,0,0,0,0,0,0,0,0,0,0,0,0,0,0,0,0,0,0,0,2,12.0,0.102459,replay
16813.14504,80,2,0,0,-1,-1,0,65,82,19175,16,67,-27,19,86,1210,228,3,44,0,1,0,1,0,0,182,2048,20,194,182,0,255,17,1,2,0,0,0,0,0,0,0,0,8889,8890,174,30,166,2,8.0,0.021899,replay
16813.64686,80,2,0,0,-1,-1,0,66,82,19169,17,67,-34,25,85,1217,26,0,162,1,2,1,2,0,0,0,0,0,0,0,0,0,0,0,0,0,0,0,0,0,0,0,0,0,0,0,0,0,2,12.0,0.102836,replay
16814.16348,80,2,0,0,0,-1,0,66,82,19168,18,67,39,12,84,1223,26,0,162,1,2,1,2,0,0,0,0,0,0,0,0,0,0,0,0,0,0,0,0,0,0,0,0,0,0,0,0,0,2,12.0,0.512712,replay
16814.70819,80,1,-1,0,0,-1,0,67,83,19171,18,67,28,17,81,1229,26,0,162,1,2,1,2,0,0,0,0,0,0,0,0,0,0,0,0,0,0,0,0,0,0,0,0,0,0,0,0,0,2,12.0,0.306925,replay
16815.22512,80,0,0,0,0,2,0,67,82,19163,19,67,16,8,84,1258,26,0,162,1,2,1,2,0,0,0,0,0,0,0,0,0,0,0,0,0,0,0,0,0,0,0,0,0,0,0,0,0,2,12.0,0.002039,replay
16815.7371,80,0,0,0,0,0,0,66,81,19161,19,67,15,7,83,1258,26,0,162,1,2,1,2,0,0,0,0,0,0,0,0,0,0,0,0,0,0,0,0,0,0,0,0,0,0,0,0,0,2,12.0,0.002039,replay
16816.25814,80,1,0,0,-1,-1,0,66,81,19167,20,67,14,12,82,1280,26,0,162,1,2,1,2,0,0,0,0,0,0,0,0,0,0,0,0,0,0,0,0,0,0,0,0,0,0,0,0,0,2,12.0,0.002036,replay
16816.78606,80,1,-1,0,0,-1,0,66,81,19166,20,67,8,11,83,1308,232,3,44,0,1,0,1,0,0,224,2048,20,198,224,0,255,17,1,2,0,0,0,0,0,0,0,0,8889,8890,178,35,170,2,8.0,0.057958,replay
16817.32953,80,0,0,0,0,-1,0,66,81,19169,21,67,3,7,83,1312,26,0,162,1,2,1,2,0,0,0,0,0,0,0,0,0,0,0,0,0,0,0,0,0,0,0,0,0,0,0,0,0,2,12.0,0.659409,replay
16817.83048,70,0,0,0,0,2,0,66,79,19162,21,67,1,4,82,1318,26,0,162,1,2,1,2,0,0,0,0,0,0,0,0,0,0,0,0,0,0,0,0,0,0,0,0,0,0,0,0,0,2,12.0,0.000631,replay
16818.3512,70,0,0,0,0,0,0,66,79,19168,22,67,1,5,81,1322,26,0,162,1,2,1,2,0,0,0,0,0,0,0,0,0,0,0,0,0,0,0,0,0,0,0,0,0,0,0,0,0,2,12.0,0.001379,replay
16818.86628,70,0,0,0,0,0,0,67,80,19168,22,67,3,8,82,1359,26,0,162,1,2,1,2,0,0,0,0,0,0,0,0,0,0,0,0,0,0,0,0,0,0,0,0,0,0,0,0,0,2,12.0,0.921924,replay
16819.39683,70,0,0,0,0,-1,25,67,81,19179,23,67,3,10,82,1363,26,0,162,1,2,1,2,0,0,0,0,0,0,0,0,0,0,0,0,0,0,0,0,0,0,0,0,0,0,0,0,0,2,12.0,0.102866,replay
16819.91246,80,0,0,0,0,0,34,66,82,19171,23,67,2,11,84,1373,26,0,162,1,2,1,2,0,0,0,0,0,0,0,0,0,0,0,0,0,0,0,0,0,0,0,0,0,0,0,0,0,2,12.0,0.001942,replay
16820.4281,80,0,0,0,0,0,28,66,83,19176,24,67,3,11,85,1400,26,0,162,1,2,1,2,0,0,0,0,0,0,0,0,0,0,0,0,0,0,0,0,0,0,0,0,0,0,0,0,0,2,12.0,2.6e-05,replay
16820.94472,80,0,0,0,0,-1,6,66,82,19167,24,67,4,14,84,1406,26,0,162,1,2,1,2,0,0,0,0,0,0,0,0,0,0,0,0,0,0,0,0,0,0,0,0,0,0,0,0,0,2,12.0,0.001256,replay
16821.46146,80,0,0,0,0,0,0,66,82,19167,25,67,6,16,83,1416,26,0,162,1,2,1,2,0,0,0,0,0,0,0,0,0,0,0,0,0,0,0,0,0,0,0,0,0,0,0,0,0,2,12.0,0.001913,replay
16821.97342,80,0,0,0,-1,0,0,66,82,19173,25,67,7,15,84,1424,26,0,162,1,2,1,2,0,0,0,0,0,0,0,0,0,0,0,0,0,0,0,0,0,0,0,0,0,0,0,0,0,2,12.0,0.000323,replay
16822.47511,80,0,-1,0,0,0,0,66,81,19164,26,67,4,13,83,1424,26,0,162,1,2,1,2,0,0,0,0,0,0,0,0,0,0,0,0,0,0,0,0,0,0,0,0,0,0,0,0,0,2,12.0,0.000323,replay
16823.03781,70,0,-1,0,0,0,0,66,81,19164,26,67,2,7,83,1472,26,0,162,1,2,1,2,0,0,0,0,0,0,0,0,0,0,0,0,0,0,0,0,0,0,0,0,0,0,0,0,0,2,12.0,0.000554,replay
16823.56683,70,0,0,0,0,1,0,66,80,19169,27,67,2,4,83,1484,26,0,162,1,2,1,2,0,0,0,0,0,0,0,0,0,0,0,0,0,0,0,0,0,0,0,0,0,0,0,0,0,2,12.0,0.001297,replay
16824.08472,70,4,0,0,-6,0,0,67,82,19158,27,67,-2,5,82,1509,231,3,44,0,1,0,1,0,0,313,2048,20,197,312,0,255,17,1,2,0,0,0,0,0,0,0,0,8889,8890,177,38,169,2,8.0,0.031423,replay
16824.61564,80,2,0,0,0,0,0,67,82,19170,28,67,-18,13,81,1524,26,0,162,1,2,1,2,0,0,0,0,0,0,0,0,0,0,0,0,0,0,0,0,0,0,0,0,0,0,0,0,0,2,12.0,0.100681,replay
16825.16136,80,2,0,0,-1,0,0,66,81,19167,29,67,-39,18,78,1538,26,0,162,1,2,1,2,0,0,0,0,0,0,0,0,0,0,0,0,0,0,0,0,0,0,0,0,0,0,0,0,0,2,12.0,0.000958,replay
16825.69094,80,2,0,0,-1,0,0,67,81,19167,29,67,-31,-8,81,1542,26,0,162,1,2,1,2,0,0,0,0,0,0,0,0,0,0,0,0,0,0,0,0,0,0,0,0,0,0,0,0,0,2,12.0,0.001335,replay
16826.1946,80,2,0,0,-1,-1,0,67,81,19163,30,67,-20,-10,81,1542,26,0,162,1,2,1,2,0,0,0,0,0,0,0,0,0,0,0,0,0,0,0,0,0,0,0,0,0,0,0,0,0,2,12.0,0.001335,replay
16826.70922,70,1,0,0,3,1,0,66,81,19167,30,67,-6,-7,82,1564,26,0,162,1,2,1,2,0,0,0,0,0,0,0,0,0,0,0,0,0,0,0,0,0,0,0,0,0,0,0,0,0,2,12.0,0.002433,replay
16827.22481,80,0,0,0,0,0,0,66,81,19168,31,67,-3,-6,83,1564,26,0,162,1,2,1,2,0,0,0,0,0,0,0,0,0,0,0,0,0,0,0,0,0,0,0,0,0,0,0,0,0,2,12.0,0.002433,replay
